,시설_구분,시설_이름,시설_위치,위도,경도
0,학교,선화예술중학교,"37.5509798002896, 127.087095159462",37.5509798002896,127.087095159462
1,학교,서울숭신초등학교,"37.5676883077439, 127.028005141452",37.5676883077439,127.028005141452
2,학교,행당중학교,"37.5545540364985, 127.041963387397",37.5545540364985,127.041963387397
3,학교,한양대학교사범대학부속중학교,"37.5619188387132, 127.042324044658",37.5619188387132,127.042324044658
4,학교,자양중학교,"37.5357298982053, 127.074368913785",37.5357298982053,127.074368913785
5,학교,용곡중학교,"37.5658339893237, 127.089275266763",37.5658339893237,127.089275266763
6,학교,옥정중학교,"37.5416703705205, 127.012983234555",37.5416703705205,127.012983234555
7,학교,양진중학교,"37.5449782076528, 127.098714317037",37.5449782076528,127.098714317037
8,학교,신양중학교,"37.5336522682692, 127.063425269386",37.5336522682692,127.063425269386
9,학교,성원중학교,"37.5394518246786, 127.051383529488",37.5394518246786,127.051383529488
10,학교,성수중학교,"37.5473418143935, 127.038253431317",37.5473418143935,127.038253431317
11,학교,무학중학교,"37.557701190017, 127.031992242352",37.557701190017,127.031992242352
12,학교,마장중학교,"37.5683388716972, 127.041605053834",37.5683388716972,127.041605053834
13,학교,대원국제중학교,"37.5624502219725, 127.089376716312",37.5624502219725,127.089376716312
14,학교,동마중학교,"37.5628025060626, 127.040351173206",37.5628025060626,127.040351173206
15,학교,동국대학교사범대학부속여자중학교,"37.5419293578309, 127.086973061678",37.5419293578309,127.086973061678
16,학교,구의중학교,"37.5428503028479, 127.078840375276",37.5428503028479,127.078840375276
17,학교,광희중학교,"37.5511545255411, 127.033980048989",37.5511545255411,127.033980048989
18,학교,광진중학교,"37.5322195901849, 127.090162126057",37.5322195901849,127.090162126057
19,학교,광장중학교,"37.5471775185817, 127.101927589353",37.5471775185817,127.101927589353
20,학교,광양중학교,"37.5308913414973, 127.08616998675",37.5308913414973,127.08616998675
21,학교,광남중학교,"37.5408304051926, 127.101643877784",37.5408304051926,127.101643877784
22,학교,경일중학교,"37.5438083798316, 127.047853796815",37.5438083798316,127.047853796815
23,학교,경수중학교,"37.5395090367488, 127.059271203056",37.5395090367488,127.059271203056
24,학교,건국대학교사범대학부속중학교,"37.5417240729902, 127.081597057268",37.5417240729902,127.081597057268
25,학교,한양초등학교,"37.5576210338606, 127.050263444631",37.5576210338606,127.050263444631
26,학교,세종초등학교,"37.5530110986438, 127.072864629554",37.5530110986438,127.072864629554
27,학교,성동초등학교,"37.5332813682573, 127.089281026795",37.5332813682573,127.089281026795
28,학교,서울행현초등학교,"37.5577089897922, 127.0293680158",37.5577089897922,127.0293680158
29,학교,서울행당초등학교,"37.5570191301189, 127.034873404864",37.5570191301189,127.034873404864
30,학교,서울중마초등학교,"37.5661150659734, 127.080023721804",37.5661150659734,127.080023721804
31,학교,서울중광초등학교,"37.565172983593, 127.082512285004",37.565172983593,127.082512285004
32,학교,서울장안초등학교,"37.549876450253, 127.072402467919",37.549876450253,127.072402467919
33,학교,서울자양초등학교,"37.5368378891148, 127.080107720459",37.5368378891148,127.080107720459
34,학교,서울응봉초등학교,"37.5502533901839, 127.033829695602",37.5502533901839,127.033829695602
35,학교,서울용마초등학교,"37.5578273465317, 127.083527417056",37.5578273465317,127.083527417056
36,학교,서울용답초등학교,"37.5607271218686, 127.053760797077",37.5607271218686,127.053760797077
37,학교,서울용곡초등학교,"37.5671086161443, 127.088452984118",37.5671086161443,127.088452984118
38,학교,서울옥정초등학교,"37.5423097389598, 127.015785478614",37.5423097389598,127.015785478614
39,학교,서울옥수초등학교,"37.5455293912538, 127.021869551034",37.5455293912538,127.021869551034
40,학교,서울양진초등학교,"37.5449782076528, 127.098714317037",37.5449782076528,127.098714317037
41,학교,서울양남초등학교,"37.5311232360546, 127.089234331023",37.5311232360546,127.089234331023
42,학교,서울신자초등학교,"37.5302454529249, 127.075587591515",37.5302454529249,127.075587591515
43,학교,서울신양초등학교,"37.5346820949284, 127.0699952764",37.5346820949284,127.0699952764
44,학교,서울송원초등학교,"37.5541592708709, 127.069526172922",37.5541592708709,127.069526172922
45,학교,서울성자초등학교,"37.531493571169, 127.083408323591",37.531493571169,127.083408323591
46,학교,서울성수초등학교,"37.5443378762673, 127.062886077541",37.5443378762673,127.062886077541
47,학교,서울사근초등학교,"37.5626797138007, 127.047573849243",37.5626797138007,127.047573849243
48,학교,서울무학초등학교,"37.5632747388032, 127.029643655901",37.5632747388032,127.029643655901
49,학교,서울마장초등학교,"37.5683388716972, 127.041605053834",37.5683388716972,127.041605053834
50,학교,서울동호초등학교,"37.5462920770572, 127.009879731064",37.5462920770572,127.009879731064
51,학교,서울동자초등학교,"37.5350582094918, 127.072179165371",37.5350582094918,127.072179165371
52,학교,서울동의초등학교,"37.5534224448219, 127.099047310011",37.5534224448219,127.099047310011
53,학교,서울동명초등학교,"37.5681228514315, 127.035108248567",37.5681228514315,127.035108248567
54,학교,서울금호초등학교,"37.5518979414195, 127.020752859362",37.5518979414195,127.020752859362
55,학교,서울금옥초등학교,"37.5463023672305, 127.017491634615",37.5463023672305,127.017491634615
56,학교,서울금북초등학교,"37.5574954945237, 127.023556547484",37.5574954945237,127.023556547484
57,학교,서울구의초등학교,"37.5430074366803, 127.08031177586",37.5430074366803,127.08031177586
58,학교,서울구남초등학교,"37.5370965949427, 127.092288798461",37.5370965949427,127.092288798461
59,학교,서울광진초등학교,"37.5476114602117, 127.091332532375",37.5476114602117,127.091332532375
60,학교,서울광장초등학교,"37.5485492186653, 127.101799885644",37.5485492186653,127.101799885644
61,학교,서울광남초등학교,"37.5409675314785, 127.100704228215",37.5409675314785,127.100704228215
62,학교,서울경일초등학교,"37.5409418986185, 127.046605149237",37.5409418986185,127.046605149237
63,학교,서울경수초등학교,"37.5404366739206, 127.058066769768",37.5404366739206,127.058066769768
64,학교,서울경동초등학교,"37.5438252989974, 127.050074037135",37.5438252989974,127.050074037135
65,학교,경복초등학교,"37.5498138606171, 127.086793350213",37.5498138606171,127.086793350213
66,학교,중앙대학교사범대학부속중학교,"37.503629418993, 126.961732578732",37.503629418993,126.961732578732
67,학교,장승중학교,"37.5031485833795, 126.940834004372",37.5031485833795,126.940834004372
68,학교,인헌중학교,"37.4726853122526, 126.968848481233",37.4726853122526,126.968848481233
69,학교,영등포중학교,"37.5080854131193, 126.933143709837",37.5080854131193,126.933143709837
70,학교,신림중학교,"37.4703273364656, 126.946003990797",37.4703273364656,126.946003990797
71,학교,신관중학교,"37.4802012453571, 126.934452241482",37.4802012453571,126.934452241482
72,학교,숭의여자중학교,"37.507364139341, 126.92924328346",37.507364139341,126.92924328346
73,학교,성보중학교,"37.4807283676946, 126.920957326353",37.4807283676946,126.920957326353
74,학교,성남중학교,"37.5052815748623, 126.926615278225",37.5052815748623,126.926615278225
75,학교,서울문영여자중학교,"37.4729045674501, 126.950918062755",37.4729045674501,126.950918062755
76,학교,상현중학교,"37.4941557795456, 126.960607735677",37.4941557795456,126.960607735677
77,학교,상도중학교,"37.4909219003444, 126.961475595626",37.4909219003444,126.961475595626
78,학교,삼성중학교,"37.4676058987272, 126.942513213832",37.4676058987272,126.942513213832
79,학교,사당중학교,"37.4877611854985, 126.968540661313",37.4877611854985,126.968540661313
80,학교,봉원중학교,"37.4841027415012, 126.958890911497",37.4841027415012,126.958890911497
81,학교,봉림중학교,"37.4811981682395, 126.937702673305",37.4811981682395,126.937702673305
82,학교,미성중학교,"37.4753828116217, 126.912088901502",37.4753828116217,126.912088901502
83,학교,문창중학교,"37.4958609410012, 126.922405470441",37.4958609410012,126.922405470441
84,학교,동작중학교,"37.4954619461448, 126.977801624632",37.4954619461448,126.977801624632
85,학교,동양중학교,"37.5102231403469, 126.957477481379",37.5102231403469,126.957477481379
86,학교,대방중학교,"37.4954367843295, 126.91301619957",37.4954367843295,126.91301619957
87,학교,당곡중학교,"37.4923586311415, 126.932678731475",37.4923586311415,126.932678731475
88,학교,남성중학교,"37.4790082237647, 126.97241407945",37.4790082237647,126.97241407945
89,학교,남서울중학교,"37.4821362472153, 126.921037135349",37.4821362472153,126.921037135349
90,학교,남강중학교,"37.4713756726623, 126.924909105757",37.4713756726623,126.924909105757
91,학교,난우중학교,"37.4668039555901, 126.922828324577",37.4668039555901,126.922828324577
92,학교,국사봉중학교,"37.493532631943, 126.944055659373",37.493532631943,126.944055659373
93,학교,구암중학교,"37.4927662360841, 126.949035651603",37.4927662360841,126.949035651603
94,학교,광신중학교,"37.4644762024804, 126.925940565455",37.4644762024804,126.925940565455
95,학교,관악중학교,"37.4812582784976, 126.961912338875",37.4812582784976,126.961912338875
96,학교,강현중학교,"37.5031159857549, 126.930756309893",37.5031159857549,126.930756309893
97,학교,강남중학교,"37.5027626308253, 126.923346619702",37.5027626308253,126.923346619702
98,학교,중앙대학교사범대학부속초등학교,"37.5052685494717, 126.960162287237",37.5052685494717,126.960162287237
99,학교,서울흑석초등학교,"37.5082970524535, 126.965149160443",37.5082970524535,126.965149160443
100,학교,서울행림초등학교,"37.4828114848946, 126.964977725041",37.4828114848946,126.964977725041
101,학교,서울청룡초등학교,"37.4767252713626, 126.951284574125",37.4767252713626,126.951284574125
102,학교,서울조원초등학교,"37.484127765974, 126.909505620969",37.484127765974,126.909505620969
103,학교,서울인헌초등학교,"37.4767753536009, 126.959875787277",37.4767753536009,126.959875787277
104,학교,서울은천초등학교,"37.4865852040387, 126.942679132637",37.4865852040387,126.942679132637
105,학교,서울은로초등학교,"37.5033929766399, 126.959778422441",37.5033929766399,126.959778422441
106,학교,서울원신초등학교,"37.4672075457163, 126.92727524954",37.4672075457163,126.92727524954
107,학교,서울원당초등학교,"37.4813047920283, 126.955766635019",37.4813047920283,126.955766635019
108,학교,서울영화초등학교,"37.5089369468762, 126.932815969374",37.5089369468762,126.932815969374
109,학교,서울영본초등학교,"37.5113065101691, 126.94864052145",37.5113065101691,126.94864052145
110,학교,서울신우초등학교,"37.4632725256816, 126.932535154048",37.4632725256816,126.932535154048
111,학교,서울신성초등학교,"37.472003312266, 126.936754150323",37.472003312266,126.936754150323
112,학교,서울신상도초등학교,"37.5008246344742, 126.943817704578",37.5008246344742,126.943817704578
113,학교,서울신봉초등학교,"37.4855779476851, 126.949130876206",37.4855779476851,126.949130876206
114,학교,서울신림초등학교,"37.4771198534832, 126.926876735629",37.4771198534832,126.926876735629
115,학교,서울신남성초등학교,"37.4887047110087, 126.964679741398",37.4887047110087,126.964679741398
116,학교,서울신길초등학교,"37.5103665150217, 126.926808573769",37.5103665150217,126.926808573769
117,학교,서울상현초등학교,"37.4948743920855, 126.952669123087",37.4948743920855,126.952669123087
118,학교,서울상도초등학교,"37.5003760295043, 126.937378799359",37.5003760295043,126.937378799359
119,학교,서울삼일초등학교,"37.4882593140973, 126.975188515742",37.4882593140973,126.975188515742
120,학교,서울삼성초등학교,"37.4685220375851, 126.940492900894",37.4685220375851,126.940492900894
121,학교,서울사당초등학교,"37.4738196175948, 126.973366964486",37.4738196175948,126.973366964486
122,학교,서울봉현초등학교,"37.4912022088395, 126.955347165898",37.4912022088395,126.955347165898
123,학교,서울봉천초등학교,"37.4832732140812, 126.95820924848",37.4832732140812,126.95820924848
124,학교,서울본동초등학교,"37.5106568125953, 126.953923907042",37.5106568125953,126.953923907042
125,학교,서울보라매초등학교,"37.4958518874539, 126.916144507788",37.4958518874539,126.916144507788
126,학교,서울미성초등학교,"37.4783399695494, 126.912392273996",37.4783399695494,126.912392273996
127,학교,서울문창초등학교,"37.4889482943857, 126.914528045959",37.4889482943857,126.914528045959
128,학교,서울동작초등학교,"37.4940605364226, 126.976489285999",37.4940605364226,126.976489285999
129,학교,서울대림초등학교,"37.5006196717046, 126.924878133652",37.5006196717046,126.924878133652
130,학교,서울당곡초등학교,"37.4901681154487, 126.930369788237",37.4901681154487,126.930369788237
131,학교,서울노량진초등학교,"37.5117195690698, 126.940827465638",37.5117195690698,126.940827465638
132,학교,서울남성초등학교,"37.4846330175369, 126.975577985193",37.4846330175369,126.975577985193
133,학교,서울남사초등학교,"37.48194132287, 126.978234357795",37.48194132287,126.978234357795
134,학교,서울남부초등학교,"37.4851194359099, 126.922183775699",37.4851194359099,126.922183775699
135,학교,서울난향초등학교,"37.4628218910704, 126.918336846046",37.4628218910704,126.918336846046
136,학교,서울난우초등학교,"37.4771205875183, 126.917458792183",37.4771205875183,126.917458792183
137,학교,서울난곡초등학교,"37.4691282036291, 126.916341558815",37.4691282036291,126.916341558815
138,학교,서울구암초등학교,"37.4892174749954, 126.946271723126",37.4892174749954,126.946271723126
139,학교,서울관악초등학교,"37.4810297131995, 126.942570541831",37.4810297131995,126.942570541831
140,학교,서울강남초등학교,"37.5062047182589, 126.953567101813",37.5062047182589,126.953567101813
141,학교,상일중학교,"37.5485874781342, 127.170823536325",37.5485874781342,127.170823536325
142,학교,위례솔중학교,"37.4872591125777, 127.150354996473",37.4872591125777,127.150354996473
143,학교,서울위례솔초등학교,"37.486734037842, 127.150753871028",37.486734037842,127.150753871028
144,학교,강빛중학교,"37.5743433210453, 127.170774922577",37.5743433210453,127.170774922577
145,학교,서울강빛초등학교,"37.5743433210453, 127.170774922577",37.5743433210453,127.170774922577
146,학교,서울고현초등학교,"37.5538039438067, 127.166050130468",37.5538039438067,127.166050130468
147,학교,해누리중학교,"37.4984115921213, 127.102124196858",37.4984115921213,127.102124196858
148,학교,서울해누리초등학교,"37.4984115921213, 127.102124196858",37.4984115921213,127.102124196858
149,학교,서울강솔초등학교,"37.5618696246217, 127.180267055739",37.5618696246217,127.180267055739
150,학교,서울위례별초등학교,"37.4790497618126, 127.145018831355",37.4790497618126,127.145018831355
151,학교,한영중학교,"37.5490844724681, 127.156927612469",37.5490844724681,127.156927612469
152,학교,한산중학교,"37.5289027355132, 127.140303398101",37.5289027355132,127.140303398101
153,학교,풍성중학교,"37.5252777887983, 127.113130689958",37.5252777887983,127.113130689958
154,학교,풍납중학교,"37.5253505135011, 127.115628322635",37.5253505135011,127.115628322635
155,학교,천호중학교,"37.5465192580007, 127.139697961268",37.5465192580007,127.139697961268
156,학교,천일중학교,"37.5458447527249, 127.128196604109",37.5458447527249,127.128196604109
157,학교,정신여자중학교,"37.5094538398143, 127.073847329188",37.5094538398143,127.073847329188
158,학교,잠실중학교,"37.5173471687295, 127.09972830098",37.5173471687295,127.09972830098
159,학교,잠신중학교,"37.5160817484345, 127.088243186371",37.5160817484345,127.088243186371
160,학교,일신여자중학교,"37.5017941334924, 127.114241325581",37.5017941334924,127.114241325581
161,학교,오주중학교,"37.5014842537875, 127.136506477956",37.5014842537875,127.136506477956
162,학교,오륜중학교,"37.5162947747499, 127.13852222328",37.5162947747499,127.13852222328
163,학교,오금중학교,"37.5052111047982, 127.129112056324",37.5052111047982,127.129112056324
164,학교,영파여자중학교,"37.5327371486645, 127.119740221132",37.5327371486645,127.119740221132
165,학교,아주중학교,"37.5052044945698, 127.076298941322",37.5052044945698,127.076298941322
166,학교,신천중학교,"37.5162500127349, 127.079283389854",37.5162500127349,127.079283389854
167,학교,신암중학교,"37.5563616900258, 127.133604335628",37.5563616900258,127.133604335628
168,학교,신명중학교,"37.5418144867925, 127.149291882662",37.5418144867925,127.149291882662
169,학교,송파중학교,"37.4959246234885, 127.129932432189",37.4959246234885,127.129932432189
170,학교,송례중학교,"37.4778330100686, 127.13973449828",37.4778330100686,127.13973449828
171,학교,세륜중학교,"37.5089331446047, 127.131246387027",37.5089331446047,127.131246387027
172,학교,성덕여자중학교,"37.5498545397762, 127.141541303447",37.5498545397762,127.141541303447
173,학교,성내중학교,"37.5290619074653, 127.129117291814",37.5290619074653,127.129117291814
174,학교,석촌중학교,"37.5014549929626, 127.121117352937",37.5014549929626,127.121117352937
175,학교,서울체육중학교,"37.5223303821085, 127.129822552593",37.5223303821085,127.129822552593
176,학교,보인중학교,"37.4975692004431, 127.139517839227",37.4975692004431,127.139517839227
177,학교,보성중학교,"37.5200898870034, 127.135729296295",37.5200898870034,127.135729296295
178,학교,배재중학교,"37.5550559824557, 127.150160525237",37.5550559824557,127.150160525237
179,학교,배명중학교,"37.4976894981876, 127.095811765574",37.4976894981876,127.095811765574
180,학교,방이중학교,"37.5149508047144, 127.113373673739",37.5149508047144,127.113373673739
181,학교,방산중학교,"37.5093439082296, 127.121567809411",37.5093439082296,127.121567809411
182,학교,문현중학교,"37.4805587972062, 127.128244061598",37.4805587972062,127.128244061598
183,학교,문정중학교,"37.4883919978179, 127.130286303121",37.4883919978179,127.130286303121
184,학교,명일중학교,"37.5576563502383, 127.14729852725",37.5576563502383,127.14729852725
185,학교,둔촌중학교,"37.5308360856293, 127.146331741485",37.5308360856293,127.146331741485
186,학교,동신중학교,"37.5367695166843, 127.134366593349",37.5367695166843,127.134366593349
187,학교,동북중학교,"37.5202406144077, 127.139450654266",37.5202406144077,127.139450654266
188,학교,고덕중학교,"37.5603584289834, 127.161761886139",37.5603584289834,127.161761886139
189,학교,거원중학교,"37.4876964764281, 127.146542554504",37.4876964764281,127.146542554504
190,학교,강일중학교,"37.5553453453104, 127.138008577115",37.5553453453104,127.138008577115
191,학교,강명중학교,"37.5556127825867, 127.174608361426",37.5556127825867,127.174608361426
192,학교,강동중학교,"37.5696502492074, 127.177836046342",37.5696502492074,127.177836046342
193,학교,가원중학교,"37.4909683312292, 127.122978948911",37.4909683312292,127.122978948911
194,학교,가락중학교,"37.5023397085349, 127.11897125744",37.5023397085349,127.11897125744
195,학교,서울한산초등학교,"37.5286945837724, 127.14107694998",37.5286945837724,127.14107694998
196,학교,서울풍성초등학교,"37.5263118815737, 127.113492681415",37.5263118815737,127.113492681415
197,학교,서울풍납초등학교,"37.5352940632209, 127.117532366819",37.5352940632209,127.117532366819
198,학교,서울평화초등학교,"37.4916183368483, 127.122700488472",37.4916183368483,127.122700488472
199,학교,서울토성초등학교,"37.5318963267968, 127.115772382237",37.5318963267968,127.115772382237
200,학교,서울천호초등학교,"37.5477189664877, 127.136592330295",37.5477189664877,127.136592330295
201,학교,서울천일초등학교,"37.5443612197289, 127.133436718515",37.5443612197289,127.133436718515
202,학교,서울천동초등학교,"37.541015901733, 127.137828727405",37.541015901733,127.137828727405
203,학교,서울중대초등학교,"37.4998119038214, 127.113605457993",37.4998119038214,127.113605457993
204,학교,서울잠현초등학교,"37.5225858707847, 127.104722782408",37.5225858707847,127.104722782408
205,학교,서울잠전초등학교,"37.5073349275982, 127.083864376692",37.5073349275982,127.083864376692
206,학교,서울잠일초등학교,"37.5147416618092, 127.081636216984",37.5147416618092,127.081636216984
207,학교,서울잠실초등학교,"37.5201410422976, 127.110799789543",37.5201410422976,127.110799789543
208,학교,서울잠신초등학교,"37.5141697474146, 127.08797670792",37.5141697474146,127.08797670792
209,학교,서울잠동초등학교,"37.518364083155, 127.099997855402",37.518364083155,127.099997855402
210,학교,서울위례초등학교,"37.5223185221619, 127.139436648101",37.5223185221619,127.139436648101
211,학교,서울오륜초등학교,"37.5124274792928, 127.134396802963",37.5124274792928,127.134396802963
212,학교,서울오금초등학교,"37.5093704878322, 127.131977915625",37.5093704878322,127.131977915625
213,학교,서울영풍초등학교,"37.4961862376383, 127.143214689204",37.4961862376383,127.143214689204
214,학교,서울아주초등학교,"37.50578969665, 127.075317277909",37.50578969665,127.075317277909
215,학교,서울신천초등학교,"37.5140077737504, 127.095036549398",37.5140077737504,127.095036549398
216,학교,서울신암초등학교,"37.5500236743432, 127.124404356441",37.5500236743432,127.124404356441
217,학교,서울신명초등학교,"37.5409268527757, 127.149979091111",37.5409268527757,127.149979091111
218,학교,서울신가초등학교,"37.5003207198096, 127.119700425145",37.5003207198096,127.119700425145
219,학교,서울송파초등학교,"37.5069549745149, 127.111247174893",37.5069549745149,127.111247174893
220,학교,서울송전초등학교,"37.5088312569718, 127.095121373383",37.5088312569718,127.095121373383
221,학교,서울송례초등학교,"37.4778940251025, 127.13849585496",37.4778940251025,127.13849585496
222,학교,서울세륜초등학교,"37.5185748448001, 127.134157724554",37.5185748448001,127.134157724554
223,학교,서울성일초등학교,"37.5297092388513, 127.128408263098",37.5297092388513,127.128408263098
224,학교,서울성내초등학교,"37.5313578593416, 127.122500139991",37.5313578593416,127.122500139991
225,학교,서울선사초등학교,"37.5558469097869, 127.12819596827",37.5558469097869,127.12819596827
226,학교,서울선린초등학교,"37.5297601213047, 127.145594039357",37.5297601213047,127.145594039357
227,학교,서울석촌초등학교,"37.5026527756676, 127.105238463221",37.5026527756676,127.105238463221
228,학교,서울상일초등학교,"37.5475721706533, 127.17266348564",37.5475721706533,127.17266348564
229,학교,서울삼전초등학교,"37.5017012801562, 127.093268133907",37.5017012801562,127.093268133907
230,학교,서울버들초등학교,"37.5102185018601, 127.089274587416",37.5102185018601,127.089274587416
231,학교,서울방이초등학교,"37.513512293639, 127.120531131015",37.513512293639,127.120531131015
232,학교,서울방산초등학교,"37.5095379215333, 127.121190696197",37.5095379215333,127.121190696197
233,학교,서울문현초등학교,"37.482790915501, 127.130257129876",37.482790915501,127.130257129876
234,학교,서울문정초등학교,"37.4890774089099, 127.129206175689",37.4890774089099,127.129206175689
235,학교,서울문덕초등학교,"37.4850521596354, 127.127962742492",37.4850521596354,127.127962742492
236,학교,서울묘곡초등학교,"37.5587127850485, 127.153093406496",37.5587127850485,127.153093406496
237,학교,서울명일초등학교,"37.554553599981, 127.142591145632",37.554553599981,127.142591145632
238,학교,서울명원초등학교,"37.5512878500966, 127.15050016138",37.5512878500966,127.15050016138
239,학교,서울명덕초등학교,"37.5567623333733, 127.145081475071",37.5567623333733,127.145081475071
240,학교,서울마천초등학교,"37.495437509372, 127.152704624882",37.495437509372,127.152704624882
241,학교,서울둔촌초등학교,"37.5262199311307, 127.137454081546",37.5262199311307,127.137454081546
242,학교,서울대명초등학교,"37.547707060343, 127.152849551167",37.547707060343,127.152849551167
243,학교,서울남천초등학교,"37.5013291325477, 127.151063224565",37.5013291325477,127.151063224565
244,학교,서울길동초등학교,"37.5385916779149, 127.144972942492",37.5385916779149,127.144972942492
245,학교,서울고일초등학교,"37.5515426236302, 127.169410143976",37.5515426236302,127.169410143976
246,학교,서울고명초등학교,"37.5529725262612, 127.147436202442",37.5529725262612,127.147436202442
247,학교,서울고덕초등학교,"37.5612942209058, 127.166096972163",37.5612942209058,127.166096972163
248,학교,서울거원초등학교,"37.4876385082093, 127.144815961872",37.4876385082093,127.144815961872
249,학교,서울거여초등학교,"37.5050261154817, 127.140946785902",37.5050261154817,127.140946785902
250,학교,서울개롱초등학교,"37.4973626123965, 127.139888149341",37.4973626123965,127.139888149341
251,학교,서울강일초등학교,"37.565255684305, 127.177212459316",37.565255684305,127.177212459316
252,학교,서울강명초등학교,"37.5547060358492, 127.173374480645",37.5547060358492,127.173374480645
253,학교,서울강동초등학교,"37.5463638024947, 127.130187177341",37.5463638024947,127.130187177341
254,학교,서울강덕초등학교,"37.5595474750238, 127.160483581978",37.5595474750238,127.160483581978
255,학교,서울가주초등학교,"37.4965672156015, 127.129280370183",37.4965672156015,127.129280370183
256,학교,서울가원초등학교,"37.4894427777046, 127.111028747643",37.4894427777046,127.111028747643
257,학교,서울가락초등학교,"37.4998746399971, 127.107214872322",37.4998746399971,127.107214872322
258,학교,서울가동초등학교,"37.4972559260218, 127.129790328684",37.4972559260218,127.129790328684
259,학교,솔샘중학교,"37.6237648476803, 127.012068855446",37.6237648476803,127.012068855446
260,학교,서울대학교사범대학부설중학교,"37.5958358987959, 127.039066241267",37.5958358987959,127.039066241267
261,학교,숭곡중학교,"37.6085534574833, 127.03124026118",37.6085534574833,127.03124026118
262,학교,영훈국제중학교,"37.6146818749027, 127.02809331872",37.6146818749027,127.02809331872
263,학교,홍익대학교사범대학부속중학교,"37.5936666161184, 127.002804963597",37.5936666161184,127.002804963597
264,학교,한성여자중학교,"37.5819996035219, 127.011312749775",37.5819996035219,127.011312749775
265,학교,창문여자중학교,"37.6134009168268, 127.035828005248",37.6134009168268,127.035828005248
266,학교,신일중학교,"37.627967222367, 127.028403050284",37.627967222367,127.028403050284
267,학교,성암여자중학교,"37.6204135324231, 127.023905892641",37.6204135324231,127.023905892641
268,학교,성신여자중학교,"37.5946226781717, 127.023128563512",37.5946226781717,127.023128563512
269,학교,서라벌중학교,"37.6569840292148, 127.011488328327",37.6569840292148,127.011488328327
270,학교,동구여자중학교,"37.5941065881018, 127.008215538987",37.5941065881018,127.008215538987
271,학교,남대문중학교,"37.6185360086599, 127.055981121102",37.6185360086599,127.055981121102
272,학교,고명중학교,"37.597674141541, 127.019187491701",37.597674141541,127.019187491701
273,학교,고려대학교사범대학부속중학교,"37.6080476933587, 127.002616144531",37.6080476933587,127.002616144531
274,학교,길음중학교,"37.6140334599191, 127.017752359697",37.6140334599191,127.017752359697
275,학교,화계중학교,"37.6325180593561, 127.009709077901",37.6325180593561,127.009709077901
276,학교,종암중학교,"37.5929705982623, 127.031747584508",37.5929705982623,127.031747584508
277,학교,장위중학교,"37.6112817727174, 127.040874553779",37.6112817727174,127.040874553779
278,학교,인수중학교,"37.6437719058609, 127.009667145786",37.6437719058609,127.009667145786
279,학교,월곡중학교,"37.6069823458659, 127.048259362361",37.6069823458659,127.048259362361
280,학교,용문중학교,"37.5886903262008, 127.024660795253",37.5886903262008,127.024660795253
281,학교,수유중학교,"37.6312894231046, 127.010319655123",37.6312894231046,127.010319655123
282,학교,수송중학교,"37.6367599332935, 127.03358552315",37.6367599332935,127.03358552315
283,학교,석관중학교,"37.608121575175, 127.06671820308",37.608121575175,127.06671820308
284,학교,삼선중학교,"37.5917443908697, 127.007872876935",37.5917443908697,127.007872876935
285,학교,삼각산중학교,"37.6160412359101, 127.014342650437",37.6160412359101,127.014342650437
286,학교,북악중학교,"37.6070090504822, 127.001609529397",37.6070090504822,127.001609529397
287,학교,번동중학교,"37.6324556910711, 127.036206363566",37.6324556910711,127.036206363566
288,학교,개운중학교,"37.5946266547149, 127.024842114657",37.5946266547149,127.024842114657
289,학교,강북중학교,"37.6449158953693, 127.025373389048",37.6449158953693,127.025373389048
290,학교,우촌초등학교,"37.5956408923336, 127.011400646113",37.5956408923336,127.011400646113
291,학교,영훈초등학교,"37.6146818749027, 127.02809331872",37.6146818749027,127.02809331872
292,학교,성신초등학교,"37.5946226781717, 127.023128563512",37.5946226781717,127.023128563512
293,학교,매원초등학교,"37.597674141541, 127.019187491701",37.597674141541,127.019187491701
294,학교,대광초등학교,"37.5791510372431, 127.023445857158",37.5791510372431,127.023445857158
295,학교,광운초등학교,"37.6189751371516, 127.055243952183",37.6189751371516,127.055243952183
296,학교,서울화계초등학교,"37.6238849781413, 127.02971619019",37.6238849781413,127.02971619019
297,학교,서울청덕초등학교,"37.6120328876191, 127.000333434653",37.6120328876191,127.000333434653
298,학교,서울정수초등학교,"37.6037748856219, 127.007718883621",37.6037748856219,127.007718883621
299,학교,서울정릉초등학교,"37.6197915298294, 127.005532713286",37.6197915298294,127.005532713286
300,학교,서울정덕초등학교,"37.5982399496277, 127.013421324355",37.5982399496277,127.013421324355
301,학교,서울장위초등학교,"37.6114414258051, 127.050005965999",37.6114414258051,127.050005965999
302,학교,서울장월초등학교,"37.6219292248912, 127.047320465849",37.6219292248912,127.047320465849
303,학교,서울장곡초등학교,"37.6168828994199, 127.048169257486",37.6168828994199,127.048169257486
304,학교,서울일신초등학교,"37.5989819527133, 127.040219755884",37.5989819527133,127.040219755884
305,학교,서울인수초등학교,"37.6430505301735, 127.009135759866",37.6430505301735,127.009135759866
306,학교,서울유현초등학교,"37.632286451855, 127.011327052457",37.632286451855,127.011327052457
307,학교,서울월곡초등학교,"37.6100238748815, 127.046083188246",37.6100238748815,127.046083188246
308,학교,서울우이초등학교,"37.6386058279529, 127.014240485582",37.6386058279529,127.014240485582
309,학교,서울오현초등학교,"37.6232028439088, 127.046225894356",37.6232028439088,127.046225894356
310,학교,서울안암초등학교,"37.5871586956296, 127.022098883314",37.5871586956296,127.022098883314
311,학교,서울숭인초등학교,"37.6090977872099, 127.038146527662",37.6090977872099,127.038146527662
312,학교,서울숭례초등학교,"37.5945203773277, 127.035296496549",37.5945203773277,127.035296496549
313,학교,서울숭덕초등학교,"37.6038254756354, 127.013292433921",37.6038254756354,127.013292433921
314,학교,서울숭곡초등학교,"37.6086454014288, 127.032743405553",37.6086454014288,127.032743405553
315,학교,서울수유초등학교,"37.631249657314, 127.020292410668",37.631249657314,127.020292410668
316,학교,서울수송초등학교,"37.6373144075316, 127.032917771185",37.6373144075316,127.032917771185
317,학교,서울송천초등학교,"37.614905195868, 127.023735366645",37.614905195868,127.023735366645
318,학교,서울송중초등학교,"37.6174690796359, 127.031996538921",37.6174690796359,127.031996538921
319,학교,서울성북초등학교,"37.5940538893567, 126.99877539809",37.5940538893567,126.99877539809
320,학교,서울석관초등학교,"37.610999723005, 127.058332812717",37.610999723005,127.058332812717
321,학교,서울석계초등학교,"37.6089438673379, 127.069749623952",37.6089438673379,127.069749623952
322,학교,서울삼양초등학교,"37.6232955761621, 127.016149099325",37.6232955761621,127.016149099325
323,학교,서울삼선초등학교,"37.5871415236472, 127.012671844176",37.5871415236472,127.012671844176
324,학교,서울삼각산초등학교,"37.6160412359101, 127.014342650437",37.6160412359101,127.014342650437
325,학교,서울번동초등학교,"37.6290238580608, 127.040039390037",37.6290238580608,127.040039390037
326,학교,서울미양초등학교,"37.6215324222942, 127.014133356491",37.6215324222942,127.014133356491
327,학교,서울미아초등학교,"37.6105849033293, 127.021657995431",37.6105849033293,127.021657995431
328,학교,서울동신초등학교,"37.5832878743837, 127.017057951549",37.5832878743837,127.017057951549
329,학교,서울돈암초등학교,"37.5937262094153, 127.013004275409",37.5937262094153,127.013004275409
330,학교,서울길음초등학교,"37.6136049157335, 127.016752046083",37.6136049157335,127.016752046083
331,학교,서울길원초등학교,"37.6090646447836, 127.01679961391",37.6090646447836,127.01679961391
332,학교,서울개운초등학교,"37.6018109508131, 127.027404487079",37.6018109508131,127.027404487079
333,학교,서울개현초등학교,"37.4810262095918, 127.062042570555",37.4810262095918,127.062042570555
334,학교,내곡중학교,"37.4520032504691, 127.054444623274",37.4520032504691,127.054444623274
335,학교,서울자곡초등학교,"37.4720493601914, 127.099482575625",37.4720493601914,127.099482575625
336,학교,서울율현초등학교,"37.474558700755, 127.108265007698",37.474558700755,127.108265007698
337,학교,세곡중학교,"37.4719648659665, 127.092583750444",37.4719648659665,127.092583750444
338,학교,서울우솔초등학교,"37.4570942208519, 127.019275619438",37.4570942208519,127.019275619438
339,학교,서울세명초등학교,"37.4688571015783, 127.091075885061",37.4688571015783,127.091075885061
340,학교,휘문중학교,"37.5052894535671, 127.061993880621",37.5052894535671,127.061993880621
341,학교,진선여자중학교,"37.5023028920315, 127.048286565491",37.5023028920315,127.048286565491
342,학교,중동중학교,"37.4885699031176, 127.078681867052",37.4885699031176,127.078681867052
343,학교,은성중학교,"37.4883484513575, 127.035021467585",37.4883484513575,127.035021467585
344,학교,숙명여자중학교,"37.4914753613052, 127.052612582715",37.4914753613052,127.052612582715
345,학교,세화여자중학교,"37.5019964569165, 126.994230013893",37.5019964569165,126.994230013893
346,학교,서문여자중학교,"37.4889197255873, 126.984545759343",37.4889197255873,126.984545759343
347,학교,동덕여자중학교,"37.4758460567445, 126.992615816174",37.4758460567445,126.992615816174
348,학교,단국대학교사범대학부속중학교,"37.4956174948977, 127.057768228297",37.4956174948977,127.057768228297
349,학교,청담중학교,"37.5286597910311, 127.044810120535",37.5286597910311,127.044810120535
350,학교,이수중학교,"37.4806300322796, 126.989859045395",37.4806300322796,126.989859045395
351,학교,원촌중학교,"37.5063251046839, 127.014699724248",37.5063251046839,127.014699724248
352,학교,영동중학교,"37.465986287158, 127.025140749981",37.465986287158,127.025140749981
353,학교,역삼중학교,"37.4959294910052, 127.04861289161",37.4959294910052,127.04861289161
354,학교,언주중학교,"37.5146531581428, 127.046683245003",37.5146531581428,127.046683245003
355,학교,언북중학교,"37.5194111496903, 127.033490549669",37.5194111496903,127.033490549669
356,학교,언남중학교,"37.4723026220168, 127.043757102066",37.4723026220168,127.043757102066
357,학교,압구정중학교,"37.5302422355471, 127.033002687736",37.5302422355471,127.033002687736
358,학교,신사중학교,"37.5246515742682, 127.020918846207",37.5246515742682,127.020918846207
359,학교,신반포중학교,"37.5062653180781, 126.996124207907",37.5062653180781,126.996124207907
360,학교,신동중학교,"37.5169158985011, 127.012915373961",37.5169158985011,127.012915373961
361,학교,신구중학교,"37.5274422864928, 127.031672730195",37.5274422864928,127.031672730195
362,학교,수서중학교,"37.4912175755191, 127.102355480301",37.4912175755191,127.102355480301
363,학교,서초중학교,"37.4854679830791, 127.009230848074",37.4854679830791,127.009230848074
364,학교,서일중학교,"37.4985298571843, 127.023220688907",37.4985298571843,127.023220688907
365,학교,서운중학교,"37.4939485124964, 127.024538241332",37.4939485124964,127.024538241332
366,학교,봉은중학교,"37.5189766694152, 127.062389351922",37.5189766694152,127.062389351922
367,학교,방배중학교,"37.494868265986, 126.997827018537",37.494868265986,126.997827018537
368,학교,반포중학교,"37.5030523682879, 126.991603997827",37.5030523682879,126.991603997827
369,학교,도곡중학교,"37.4922937289635, 127.044785558988",37.4922937289635,127.044785558988
370,학교,대치중학교,"37.4845775128634, 127.047065232332",37.4845775128634,127.047065232332
371,학교,대청중학교,"37.490348545788, 127.058033515123",37.490348545788,127.058033515123
372,학교,대왕중학교,"37.4834603317394, 127.087338052671",37.4834603317394,127.087338052671
373,학교,대명중학교,"37.5063189430786, 127.060778124521",37.5063189430786,127.060778124521
374,학교,구룡중학교,"37.4862129389068, 127.056507505045",37.4862129389068,127.056507505045
375,학교,경원중학교,"37.5115815961934, 127.009018254738",37.5115815961934,127.009018254738
376,학교,개포중학교,"37.4804473919149, 127.062402866859",37.4804473919149,127.062402866859
377,학교,개원중학교,"37.4915905275033, 127.071900307455",37.4915905275033,127.071900307455
378,학교,서울우면초등학교,"37.4653655626944, 127.026054562784",37.4653655626944,127.026054562784
379,학교,서울학동초등학교,"37.512045952, 127.039435597045",37.512045952,127.039435597045
380,학교,서울포이초등학교,"37.4758166247606, 127.052045721323",37.4758166247606,127.052045721323
381,학교,서울청담초등학교,"37.5282818704161, 127.045153024716",37.5282818704161,127.045153024716
382,학교,서울잠원초등학교,"37.5018590933365, 126.9983875282",37.5018590933365,126.9983875282
383,학교,서울일원초등학교,"37.4898127052732, 127.076141940265",37.4898127052732,127.076141940265
384,학교,서울이수초등학교,"37.4781887381851, 126.984058772938",37.4781887381851,126.984058772938
385,학교,서울원촌초등학교,"37.5062446440008, 127.012346682947",37.5062446440008,127.012346682947
386,학교,서울원명초등학교,"37.5007499044884, 127.017066977739",37.5007499044884,127.017066977739
387,학교,서울우암초등학교,"37.4723005921488, 127.023731348976",37.4723005921488,127.023731348976
388,학교,서울왕북초등학교,"37.4862610232719, 127.086237195421",37.4862610232719,127.086237195421
389,학교,서울영희초등학교,"37.4923003980946, 127.081132787699",37.4923003980946,127.081132787699
390,학교,서울역삼초등학교,"37.4931444060362, 127.032564910969",37.4931444060362,127.032564910969
391,학교,서울언주초등학교,"37.4863219964306, 127.03679299115",37.4863219964306,127.03679299115
392,학교,서울언북초등학교,"37.520125172379, 127.044715764538",37.520125172379,127.044715764538
393,학교,서울언남초등학교,"37.4541133292306, 127.061436582525",37.4541133292306,127.061436582525
394,학교,서울양전초등학교,"37.4902478541395, 127.069170862479",37.4902478541395,127.069170862479
395,학교,서울양재초등학교,"37.4741653841614, 127.03189250195",37.4741653841614,127.03189250195
396,학교,서울압구정초등학교,"37.5317391125935, 127.030841741797",37.5317391125935,127.030841741797
397,학교,서울신중초등학교,"37.4801578791721, 127.009343254537",37.4801578791721,127.009343254537
398,학교,서울신동초등학교,"37.5171300437436, 127.011390388152",37.5171300437436,127.011390388152
399,학교,서울신구초등학교,"37.5233605741978, 127.023992427855",37.5233605741978,127.023992427855
400,학교,서울수서초등학교,"37.4911373654824, 127.10185783552",37.4911373654824,127.10185783552
401,학교,서울서초초등학교,"37.4990487668755, 127.024891501335",37.4990487668755,127.024891501335
402,학교,서울서일초등학교,"37.4852977769965, 127.02215975144",37.4852977769965,127.02215975144
403,학교,서울서이초등학교,"37.491564668711, 127.025618024318",37.491564668711,127.025618024318
404,학교,서울서원초등학교,"37.5024388979462, 127.014619457733",37.5024388979462,127.014619457733
405,학교,서울서래초등학교,"37.4964040023549, 126.990156472861",37.4964040023549,126.990156472861
406,학교,서울삼릉초등학교,"37.5132582999042, 127.047172253926",37.5132582999042,127.047172253926
407,학교,서울봉은초등학교,"37.5200478271392, 127.060746725412",37.5200478271392,127.060746725412
408,학교,서울방현초등학교,"37.4765029769283, 126.990073388581",37.4765029769283,126.990073388581
409,학교,서울방일초등학교,"37.4852056040312, 126.998848974708",37.4852056040312,126.998848974708
410,학교,서울방배초등학교,"37.4867641043401, 126.987137986274",37.4867641043401,126.987137986274
411,학교,서울반포초등학교,"37.5024848344961, 126.991741582915",37.5024848344961,126.991741582915
412,학교,서울반원초등학교,"37.5103872227025, 127.004236132457",37.5103872227025,127.004236132457
413,학교,서울매헌초등학교,"37.4712624819608, 127.042057861972",37.4712624819608,127.042057861972
414,학교,서울도성초등학교,"37.5014620128395, 127.048872178861",37.5014620128395,127.048872178861
415,학교,서울도곡초등학교,"37.4995114113359, 127.054465527162",37.4995114113359,127.054465527162
416,학교,서울대현초등학교,"37.5034861238053, 127.063292075669",37.5034861238053,127.063292075669
417,학교,서울대치초등학교,"37.4912865672214, 127.06197065881",37.4912865672214,127.06197065881
418,학교,서울대청초등학교,"37.4931480982967, 127.087767273125",37.4931480982967,127.087767273125
419,학교,서울대진초등학교,"37.4970275687873, 127.077861373551",37.4970275687873,127.077861373551
420,학교,서울대왕초등학교,"37.4646391801831, 127.105303959604",37.4646391801831,127.105303959604
421,학교,서울대모초등학교,"37.4805984530071, 127.085993825956",37.4805984530071,127.085993825956
422,학교,서울대도초등학교,"37.4925857669174, 127.053206571031",37.4925857669174,127.053206571031
423,학교,서울대곡초등학교,"37.4947106436849, 127.065026465684",37.4947106436849,127.065026465684
424,학교,서울논현초등학교,"37.5084895751287, 127.026222910697",37.5084895751287,127.026222910697
425,학교,서울구룡초등학교,"37.4811973926876, 127.051771435538",37.4811973926876,127.051771435538
426,학교,서울개포초등학교,"37.4863349159759, 127.070310042973",37.4863349159759,127.070310042973
427,학교,서울개일초등학교,"37.4862353839469, 127.057790853452",37.4862353839469,127.057790853452
428,학교,서울개원초등학교,"37.4816986136485, 127.059450501428",37.4816986136485,127.059450501428
429,학교,계성초등학교,"37.5049357208076, 126.996654362592",37.5049357208076,126.996654362592
430,학교,서울교육대학교부설초등학교,"37.4907404857731, 127.015424537648",37.4907404857731,127.015424537648
431,학교,여명학교(중),"37.5569031111925, 126.985536502926",37.5569031111925,126.985536502926
432,학교,마곡하늬중학교,"37.5581678959806, 126.820984775861",37.5581678959806,126.820984775861
433,학교,화곡중학교,"37.5484125649861, 126.832679697779",37.5484125649861,126.832679697779
434,학교,영도중학교,"37.5363155693554, 126.865771125825",37.5363155693554,126.865771125825
435,학교,양정중학교,"37.5353922607054, 126.887734285049",37.5353922607054,126.887734285049
436,학교,신정여자중학교,"37.5384117486135, 126.85717155125",37.5384117486135,126.85717155125
437,학교,봉영여자중학교,"37.5092159752312, 126.86019842592",37.5092159752312,126.86019842592
438,학교,명덕여자중학교,"37.5538694849081, 126.8339773378",37.5538694849081,126.8339773378
439,학교,마포중학교,"37.5600277060889, 126.85286487714",37.5600277060889,126.85286487714
440,학교,등촌중학교,"37.5524822120704, 126.859214787423",37.5524822120704,126.859214787423
441,학교,덕원중학교,"37.5486225773288, 126.829024518952",37.5486225773288,126.829024518952
442,학교,마곡중학교,"37.5680344018763, 126.821325984502",37.5680344018763,126.821325984502
443,학교,화원중학교,"37.5362140896668, 126.842413481543",37.5362140896668,126.842413481543
444,학교,월촌중학교,"37.5370651782493, 126.88275880551",37.5370651782493,126.88275880551
445,학교,염창중학교,"37.5542640665682, 126.871747328101",37.5542640665682,126.871747328101
446,학교,염경중학교,"37.5545378116366, 126.870529242403",37.5545378116366,126.870529242403
447,학교,양천중학교,"37.5190011611899, 126.830550787",37.5190011611899,126.830550787
448,학교,양서중학교,"37.5326758132814, 126.828972567552",37.5326758132814,126.828972567552
449,학교,양동중학교,"37.5483687522185, 126.868717203675",37.5483687522185,126.868717203675
450,학교,양강중학교,"37.5249101622153, 126.849620267451",37.5249101622153,126.849620267451
451,학교,신화중학교,"37.5406111025313, 126.829600421672",37.5406111025313,126.829600421672
452,학교,신월중학교,"37.5404619448842, 126.828389031623",37.5404619448842,126.828389031623
453,학교,신원중학교,"37.5370924963028, 126.82484194889",37.5370924963028,126.82484194889
454,학교,신서중학교,"37.5159664434699, 126.855016428706",37.5159664434699,126.855016428706
455,학교,신목중학교,"37.5370239898936, 126.873072488599",37.5370239898936,126.873072488599
456,학교,신남중학교,"37.520773887801, 126.847826214409",37.520773887801,126.847826214409
457,학교,수명중학교,"37.5485669904719, 126.824059627155",37.5485669904719,126.824059627155
458,학교,송정중학교,"37.5531580711075, 126.815243549144",37.5531580711075,126.815243549144
459,학교,성재중학교,"37.569502050399, 126.845404381505",37.569502050399,126.845404381505
460,학교,삼정중학교,"37.5812950426769, 126.810295495513",37.5812950426769,126.810295495513
461,학교,백석중학교,"37.5482909098797, 126.858953909893",37.5482909098797,126.858953909893
462,학교,방화중학교,"37.5643347062636, 126.807106919786",37.5643347062636,126.807106919786
463,학교,방원중학교,"37.5757386006668, 126.808220414193",37.5757386006668,126.808220414193
464,학교,목일중학교,"37.5135084946262, 126.874268759045",37.5135084946262,126.874268759045
465,학교,목운중학교,"37.527009517428, 126.873044206364",37.527009517428,126.873044206364
466,학교,목동중학교,"37.5209571978324, 126.871443390095",37.5209571978324,126.871443390095
467,학교,등원중학교,"37.5597340202733, 126.85181537298",37.5597340202733,126.85181537298
468,학교,등명중학교,"37.5601933510779, 126.843304086976",37.5601933510779,126.843304086976
469,학교,금옥중학교,"37.5109653172242, 126.843971681779",37.5109653172242,126.843971681779
470,학교,공항중학교,"37.5621745590982, 126.814808958668",37.5621745590982,126.814808958668
471,학교,경서중학교,"37.5612418553699, 126.857763950485",37.5612418553699,126.857763950485
472,학교,강신중학교,"37.5151371613165, 126.838160107241",37.5151371613165,126.838160107241
473,학교,유석초등학교,"37.560801806853, 126.853779444824",37.560801806853,126.853779444824
474,학교,서울신은초등학교,"37.5139128078247, 126.832169591843",37.5139128078247,126.832169591843
475,학교,서울화일초등학교,"37.5407120318703, 126.847470802939",37.5407120318703,126.847470802939
476,학교,서울화곡초등학교,"37.5436696173457, 126.846471725362",37.5436696173457,126.846471725362
477,학교,서울탑산초등학교,"37.5670047685109, 126.85259398539",37.5670047685109,126.85259398539
478,학교,서울치현초등학교,"37.5759191517213, 126.814645646553",37.5759191517213,126.814645646553
479,학교,서울지향초등학교,"37.5128376807713, 126.837023804089",37.5128376807713,126.837023804089
480,학교,서울정목초등학교,"37.5365288457417, 126.870049083471",37.5365288457417,126.870049083471
481,학교,서울정곡초등학교,"37.5769596950152, 126.818932773167",37.5769596950152,126.818932773167
482,학교,서울장수초등학교,"37.5129972017178, 126.845159735242",37.5129972017178,126.845159735242
483,학교,서울은정초등학교,"37.5111416389366, 126.867180395408",37.5111416389366,126.867180395408
484,학교,서울월촌초등학교,"37.5406954304154, 126.876258028151",37.5406954304154,126.876258028151
485,학교,서울월정초등학교,"37.5349941902013, 126.836293577736",37.5349941902013,126.836293577736
486,학교,서울우장초등학교,"37.5496381852817, 126.845984193202",37.5496381852817,126.845984193202
487,학교,서울영도초등학교,"37.5359499494616, 126.871942644571",37.5359499494616,126.871942644571
488,학교,서울염창초등학교,"37.5532261352883, 126.867600184199",37.5532261352883,126.867600184199
489,학교,서울염동초등학교,"37.5520954793159, 126.872350948978",37.5520954793159,126.872350948978
490,학교,서울염경초등학교,"37.5550006717487, 126.871204647976",37.5550006717487,126.871204647976
491,학교,서울양화초등학교,"37.5436692981533, 126.873986042971",37.5436692981533,126.873986042971
492,학교,서울양천초등학교,"37.5701881708645, 126.839539660332",37.5701881708645,126.839539660332
493,학교,서울양원초등학교,"37.5382284100068, 126.823105084888",37.5382284100068,126.823105084888
494,학교,서울양목초등학교,"37.5238792766238, 126.861669190913",37.5238792766238,126.861669190913
495,학교,서울양명초등학교,"37.516374951495, 126.856634868655",37.516374951495,126.856634868655
496,학교,서울양동초등학교,"37.5258482641162, 126.851240194989",37.5258482641162,126.851240194989
497,학교,서울양강초등학교,"37.5241103465762, 126.847375305566",37.5241103465762,126.847375305566
498,학교,서울신정초등학교,"37.5330611210515, 126.852593386106",37.5330611210515,126.852593386106
499,학교,서울신월초등학교,"37.5403655143855, 126.839455478388",37.5403655143855,126.839455478388
500,학교,서울신원초등학교,"37.5295155831457, 126.829865622881",37.5295155831457,126.829865622881
501,학교,서울신서초등학교,"37.5205352530134, 126.862325015812",37.5205352530134,126.862325015812
502,학교,서울신목초등학교,"37.5166109770006, 126.872640811853",37.5166109770006,126.872640811853
503,학교,서울신남초등학교,"37.5164578282463, 126.843152158167",37.5164578282463,126.843152158167
504,학교,서울신기초등학교,"37.5113123131977, 126.854212986887",37.5113123131977,126.854212986887
505,학교,서울신곡초등학교,"37.539095457491, 126.856009569323",37.539095457491,126.856009569323
506,학교,서울신강초등학교,"37.5258441852217, 126.842263907731",37.5258441852217,126.842263907731
507,학교,서울수명초등학교,"37.5527726671834, 126.823879421286",37.5527726671834,126.823879421286
508,학교,서울송화초등학교,"37.5681504658023, 126.818032939459",37.5681504658023,126.818032939459
509,학교,서울송정초등학교,"37.5622308905044, 126.810281254376",37.5622308905044,126.810281254376
510,학교,서울서정초등학교,"37.523450121384, 126.867236182114",37.523450121384,126.867236182114
511,학교,서울삼정초등학교,"37.5805084341875, 126.810493686239",37.5805084341875,126.810493686239
512,학교,서울백석초등학교,"37.5536476529209, 126.862425846537",37.5536476529209,126.862425846537
513,학교,서울방화초등학교,"37.5687040876215, 126.807498167739",37.5687040876215,126.807498167739
514,학교,서울발산초등학교,"37.5502624356308, 126.830994377549",37.5502624356308,126.830994377549
515,학교,서울목원초등학교,"37.5429349691333, 126.882445908007",37.5429349691333,126.882445908007
516,학교,서울목운초등학교,"37.527009517428, 126.873044206364",37.527009517428,126.873044206364
517,학교,서울목동초등학교,"37.5228087705411, 126.872119522597",37.5228087705411,126.872119522597
518,학교,서울등현초등학교,"37.5614511765549, 126.847598419984",37.5614511765549,126.847598419984
519,학교,서울등촌초등학교,"37.5476142187642, 126.857942163854",37.5476142187642,126.857942163854
520,학교,서울등원초등학교,"37.5598135358227, 126.850068963394",37.5598135358227,126.850068963394
521,학교,서울등양초등학교,"37.5649470358937, 126.844760249704",37.5649470358937,126.844760249704
522,학교,서울등서초등학교,"37.5518843920056, 126.855038093326",37.5518843920056,126.855038093326
523,학교,서울등명초등학교,"37.560894450375, 126.842382226829",37.560894450375,126.842382226829
524,학교,서울등마초등학교,"37.5420437126904, 126.861667207498",37.5420437126904,126.861667207498
525,학교,서울내발산초등학교,"37.5508825455676, 126.838164214765",37.5508825455676,126.838164214765
526,학교,서울남명초등학교,"37.5156885267235, 126.854099844566",37.5156885267235,126.854099844566
527,학교,서울공항초등학교,"37.5631752585272, 126.821215237029",37.5631752585272,126.821215237029
528,학교,서울공진초등학교,"37.5578308778281, 126.822806144479",37.5578308778281,126.822806144479
529,학교,서울계남초등학교,"37.5101677598408, 126.86001590922",37.5101677598408,126.86001590922
530,학교,서울경인초등학교,"37.5328710177851, 126.885695675904",37.5328710177851,126.885695675904
531,학교,서울개화초등학교,"37.5739262377478, 126.804694204855",37.5739262377478,126.804694204855
532,학교,서울강월초등학교,"37.516341716111, 126.833431935892",37.516341716111,126.833431935892
533,학교,서울강신초등학교,"37.5421368264529, 126.829581447367",37.5421368264529,126.829581447367
534,학교,서울강서초등학교,"37.5224127216539, 126.840987861073",37.5224127216539,126.840987861073
535,학교,서울갈산초등학교,"37.5123715649068, 126.870229875385",37.5123715649068,126.870229875385
536,학교,서울가양초등학교,"37.5622171927841, 126.858521557616",37.5622171927841,126.858521557616
537,학교,서울가곡초등학교,"37.5557076050115, 126.836103074522",37.5557076050115,126.836103074522
538,학교,서울대학교사범대학부설여자중학교,"37.5775997032467, 127.004295521787",37.5775997032467,127.004295521787
539,학교,서울대학교사범대학부설초등학교,"37.5775997032467, 127.004295521787",37.5775997032467,127.004295521787
540,학교,환일중학교,"37.5537559309443, 126.962588449936",37.5537559309443,126.962588449936
541,학교,한양중학교,"37.5658716036039, 127.011443307588",37.5658716036039,127.011443307588
542,학교,한강중학교,"37.5236119183008, 126.992790867047",37.5236119183008,126.992790867047
543,학교,청운중학교,"37.5891709420972, 126.971088602259",37.5891709420972,126.971088602259
544,학교,창덕여자중학교,"37.5664327974417, 126.96921017611",37.5664327974417,126.96921017611
545,학교,중앙중학교,"37.5837882231459, 126.987472622092",37.5837882231459,126.987472622092
546,학교,장충중학교,"37.5535149002283, 127.006414953028",37.5535149002283,127.006414953028
547,학교,장원중학교,"37.5539645178112, 127.006042884936",37.5539645178112,127.006042884936
548,학교,용산중학교,"37.5460125390171, 126.9809128899",37.5460125390171,126.9809128899
549,학교,용강중학교,"37.5215769321647, 126.975485292591",37.5215769321647,126.975485292591
550,학교,오산중학교,"37.5235805097988, 127.000887240982",37.5235805097988,127.000887240982
551,학교,예원학교,"37.56702326472, 126.971542683635",37.56702326472,126.971542683635
552,학교,신광여자중학교,"37.5428998795519, 126.969447523164",37.5428998795519,126.969447523164
553,학교,성심여자중학교,"37.534209370461, 126.95459335968",37.534209370461,126.95459335968
554,학교,선린중학교,"37.5427698351486, 126.966038693159",37.5427698351486,126.966038693159
555,학교,상명대학교사범대학부속여자중학교,"37.604108905882, 126.955159496571",37.604108905882,126.955159496571
556,학교,보성여자중학교,"37.5430815444968, 126.984284175086",37.5430815444968,126.984284175086
557,학교,배화여자중학교,"37.5795440101952, 126.967291871532",37.5795440101952,126.967291871532
558,학교,배문중학교,"37.5499187190496, 126.963904100329",37.5499187190496,126.963904100329
559,학교,동성중학교,"37.5849699592551, 127.003097645534",37.5849699592551,127.003097645534
560,학교,덕수중학교,"37.5655795665775, 126.996997330546",37.5655795665775,126.996997330546
561,학교,덕성여자중학교,"37.5777859821946, 126.981909156246",37.5777859821946,126.981909156246
562,학교,대신중학교,"37.573123769216, 126.96125454884",37.573123769216,126.96125454884
563,학교,대경중학교,"37.5563732600255, 127.016979156363",37.5563732600255,127.016979156363
564,학교,금호여자중학교,"37.5580382015709, 127.020461206678",37.5580382015709,127.020461206678
565,학교,경신중학교,"37.5922022663657, 126.999531005507",37.5922022663657,126.999531005507
566,학교,운현초등학교,"37.5766672930696, 126.988198556535",37.5766672930696,126.988198556535
567,학교,신광초등학교,"37.5428998795519, 126.969447523164",37.5428998795519,126.969447523164
568,학교,숭의초등학교,"37.5578530747432, 126.987481605528",37.5578530747432,126.987481605528
569,학교,서울흥인초등학교,"37.5609374871352, 127.014616166709",37.5609374871352,127.014616166709
570,학교,서울후암초등학교,"37.5513654103686, 126.981724291635",37.5513654103686,126.981724291635
571,학교,서울효제초등학교,"37.5727179599562, 127.003515410111",37.5727179599562,127.003515410111
572,학교,서울혜화초등학교,"37.5891727709231, 126.999927989279",37.5891727709231,126.999927989279
573,학교,서울한남초등학교,"37.5392036532348, 127.005599847436",37.5392036532348,127.005599847436
574,학교,서울한강초등학교,"37.5252261730909, 126.965099429477",37.5252261730909,126.965099429477
575,학교,서울충무초등학교,"37.5619494839149, 127.001235055009",37.5619494839149,127.001235055009
576,학교,서울청파초등학교,"37.5473049014312, 126.963543924367",37.5473049014312,126.963543924367
577,학교,서울청운초등학교,"37.585805731799, 126.969294698603",37.585805731799,126.969294698603
578,학교,서울청구초등학교,"37.5591166793514, 127.013724413955",37.5591166793514,127.013724413955
579,학교,서울창신초등학교,"37.5762114748296, 127.014293687874",37.5762114748296,127.014293687874
580,학교,서울재동초등학교,"37.5799415657652, 126.9855017071",37.5799415657652,126.9855017071
581,학교,서울장충초등학교,"37.559971222213, 127.01170475684",37.559971222213,127.01170475684
582,학교,서울이태원초등학교,"37.5364777066784, 126.987672660332",37.5364777066784,126.987672660332
583,학교,서울원효초등학교,"37.5361612583146, 126.951545316146",37.5361612583146,126.951545316146
584,학교,서울용암초등학교,"37.5453029008824, 126.989434775031",37.5453029008824,126.989434775031
585,학교,서울용산초등학교,"37.535613442977, 126.972550624529",37.535613442977,126.972550624529
586,학교,서울신용산초등학교,"37.5206295929735, 126.975366260146",37.5206295929735,126.975366260146
587,학교,서울신당초등학교,"37.5636896515896, 127.023636595929",37.5636896515896,127.023636595929
588,학교,서울세검정초등학교,"37.6034986015128, 126.961073121539",37.6034986015128,126.961073121539
589,학교,서울서빙고초등학교,"37.5220689203394, 126.992300401397",37.5220689203394,126.992300401397
590,학교,서울삼광초등학교,"37.5477523117279, 126.976594308147",37.5477523117279,126.976594308147
591,학교,서울봉래초등학교,"37.5564123449189, 126.965250577981",37.5564123449189,126.965250577981
592,학교,서울보광초등학교,"37.5325404707342, 126.996391100579",37.5325404707342,126.996391100579
593,학교,서울명신초등학교,"37.5813606333694, 127.013724533725",37.5813606333694,127.013724533725
594,학교,서울매동초등학교,"37.5775391376934, 126.966716978826",37.5775391376934,126.966716978826
595,학교,서울독립문초등학교,"37.5740826001873, 126.960148752178",37.5740826001873,126.960148752178
596,학교,서울덕수초등학교,"37.5690888764456, 126.974657902016",37.5690888764456,126.974657902016
597,학교,서울남정초등학교,"37.5356738275449, 126.964803669293",37.5356738275449,126.964803669293
598,학교,서울남산초등학교,"37.5597837446411, 126.986776737543",37.5597837446411,126.986776737543
599,학교,서울금양초등학교,"37.5409423141075, 126.961831873199",37.5409423141075,126.961831873199
600,학교,서울교동초등학교,"37.5749936834295, 126.988075995471",37.5749936834295,126.988075995471
601,학교,서울광희초등학교,"37.5672992845452, 127.015687859678",37.5672992845452,127.015687859678
602,학교,상명대학교사범대학부속초등학교,"37.6007485057551, 126.956425519955",37.6007485057551,126.956425519955
603,학교,리라초등학교,"37.5578196996083, 126.987980721445",37.5578196996083,126.987980721445
604,학교,동산초등학교,"37.5562046295135, 127.016725380867",37.5562046295135,127.016725380867
605,학교,한국삼육중학교,"37.643357369067, 127.108850343184",37.643357369067,127.108850343184
606,학교,효문중학교,"37.6526987118348, 127.0184004627",37.6526987118348,127.0184004627
607,학교,한천중학교,"37.6312721593711, 127.072117818679",37.6312721593711,127.072117818679
608,학교,하계중학교,"37.6413699077314, 127.072333564792",37.6413699077314,127.072333564792
609,학교,태랑중학교,"37.6269609216049, 127.09080728109",37.6269609216049,127.09080728109
610,학교,청원중학교,"37.6652515464657, 127.062532889006",37.6652515464657,127.062532889006
611,학교,창일중학교,"37.6489885948239, 127.046444592356",37.6489885948239,127.046444592356
612,학교,창북중학교,"37.6491157717023, 127.038832940575",37.6491157717023,127.038832940575
613,학교,창동중학교,"37.6632295672339, 127.048997534536",37.6632295672339,127.048997534536
614,학교,중평중학교,"37.6369763760003, 127.062335387205",37.6369763760003,127.062335387205
615,학교,중원중학교,"37.644238678695, 127.068029512763",37.644238678695,127.068029512763
616,학교,중계중학교,"37.6556269059244, 127.074900383387",37.6556269059244,127.074900383387
617,학교,정의여자중학교,"37.6533558400471, 127.032427255133",37.6533558400471,127.032427255133
618,학교,재현중학교,"37.6612906377296, 127.080799772038",37.6612906377296,127.080799772038
619,학교,을지중학교,"37.6497879094923, 127.071708403396",37.6497879094923,127.071708403396
620,학교,월계중학교,"37.6311311432951, 127.052320262288",37.6311311432951,127.052320262288
621,학교,온곡중학교,"37.660581424498, 127.064332662253",37.660581424498,127.064332662253
622,학교,염광중학교,"37.6302844506448, 127.049264552091",37.6302844506448,127.049264552091
623,학교,신창중학교,"37.6285588034653, 127.047477602261",37.6285588034653,127.047477602261
624,학교,신상중학교,"37.6519030829222, 127.063986916145",37.6519030829222,127.063986916145
625,학교,신방학중학교,"37.6641404281763, 127.028898968518",37.6641404281763,127.028898968518
626,학교,신도봉중학교,"37.6495947287047, 127.03324806776",37.6495947287047,127.03324806776
627,학교,수락중학교,"37.6831446942923, 127.054808336792",37.6831446942923,127.054808336792
628,학교,선덕중학교,"37.6562750160952, 127.026703057445",37.6562750160952,127.026703057445
629,학교,상원중학교,"37.6717249831458, 127.059783582989",37.6717249831458,127.059783582989
630,학교,상명중학교,"37.649540794927, 127.067701313205",37.649540794927,127.067701313205
631,학교,상계중학교,"37.6526541000987, 127.068552458297",37.6526541000987,127.068552458297
632,학교,상계제일중학교,"37.6610756041689, 127.078078515184",37.6610756041689,127.078078515184
633,학교,상경중학교,"37.6671487661533, 127.053705308096",37.6671487661533,127.053705308096
634,학교,불암중학교,"37.6454697408382, 127.073217164139",37.6454697408382,127.073217164139
635,학교,북서울중학교,"37.6815704209468, 127.042573542277",37.6815704209468,127.042573542277
636,학교,백운중학교,"37.6562806786387, 127.035622286787",37.6562806786387,127.035622286787
637,학교,방학중학교,"37.6654512192487, 127.030859014878",37.6654512192487,127.030859014878
638,학교,도봉중학교,"37.6708838426227, 127.045871656464",37.6708838426227,127.045871656464
639,학교,녹천중학교,"37.6310791072444, 127.061742156935",37.6310791072444,127.061742156935
640,학교,노일중학교,"37.6722888633529, 127.053889693074",37.6722888633529,127.053889693074
641,학교,노원중학교,"37.6493611386676, 127.059691996616",37.6493611386676,127.059691996616
642,학교,노곡중학교,"37.6488025057469, 127.053743652903",37.6488025057469,127.053743652903
643,학교,광운중학교,"37.6192431974844, 127.056540751938",37.6192431974844,127.056540751938
644,학교,공릉중학교,"37.6221359473952, 127.083501333421",37.6221359473952,127.083501333421
645,학교,화랑초등학교,"37.6273815936787, 127.091621159803",37.6273815936787,127.091621159803
646,학교,한신초등학교,"37.6533558400471, 127.032427255133",37.6533558400471,127.032427255133
647,학교,태강삼육초등학교,"37.643357369067, 127.108850343184",37.643357369067,127.108850343184
648,학교,청원초등학교,"37.6652515464657, 127.062532889006",37.6652515464657,127.062532889006
649,학교,서울한천초등학교,"37.6207501680548, 127.069258063469",37.6207501680548,127.069258063469
650,학교,서울태릉초등학교,"37.622879790197, 127.08478195175",37.622879790197,127.08478195175
651,학교,서울태랑초등학교,"37.6262508612825, 127.090915053347",37.6262508612825,127.090915053347
652,학교,서울초당초등학교,"37.6586278284753, 127.021956174977",37.6586278284753,127.021956174977
653,학교,서울청계초등학교,"37.6449803620092, 127.065817490235",37.6449803620092,127.065817490235
654,학교,서울창일초등학교,"37.647657641563, 127.047626299257",37.647657641563,127.047626299257
655,학교,서울창원초등학교,"37.6526440884387, 127.039979883482",37.6526440884387,127.039979883482
656,학교,서울창림초등학교,"37.6432370796248, 127.041604074164",37.6432370796248,127.041604074164
657,학교,서울창동초등학교,"37.6553630407375, 127.044832890478",37.6553630407375,127.044832890478
658,학교,서울창도초등학교,"37.6641348713315, 127.048784033819",37.6641348713315,127.048784033819
659,학교,서울창경초등학교,"37.6566021823161, 127.034602499962",37.6566021823161,127.034602499962
660,학교,서울중현초등학교,"37.632255170053, 127.066056635951",37.632255170053,127.066056635951
661,학교,서울중평초등학교,"37.6372508810163, 127.063731552615",37.6372508810163,127.063731552615
662,학교,서울중원초등학교,"37.6439662833968, 127.063052005752",37.6439662833968,127.063052005752
663,학교,서울중계초등학교,"37.6578622263163, 127.073348327013",37.6578622263163,127.073348327013
664,학교,서울자운초등학교,"37.6580556761129, 127.047017564524",37.6580556761129,127.047017564524
665,학교,서울을지초등학교,"37.6505874233691, 127.073350350295",37.6505874233691,127.073350350295
666,학교,서울월천초등학교,"37.6479137277855, 127.051425751311",37.6479137277855,127.051425751311
667,학교,서울월계초등학교,"37.6279505755622, 127.050869480548",37.6279505755622,127.050869480548
668,학교,서울원광초등학교,"37.654290852548, 127.075304285056",37.654290852548,127.075304285056
669,학교,서울용원초등학교,"37.6299301501593, 127.068936691961",37.6299301501593,127.068936691961
670,학교,서울용동초등학교,"37.6410575739212, 127.069114774673",37.6410575739212,127.069114774673
671,학교,서울온곡초등학교,"37.6673295252885, 127.065597387199",37.6673295252885,127.065597387199
672,학교,서울오봉초등학교,"37.6717184874026, 127.040258979982",37.6717184874026,127.040258979982
673,학교,서울연촌초등학교,"37.6344239191317, 127.072522941451",37.6344239191317,127.072522941451
674,학교,서울연지초등학교,"37.6331961990879, 127.059550025404",37.6331961990879,127.059550025404
675,학교,서울쌍문초등학교,"37.6483638272869, 127.024291051625",37.6483638272869,127.024291051625
676,학교,서울신화초등학교,"37.6331950434853, 127.04088417427",37.6331950434853,127.04088417427
677,학교,서울신학초등학교,"37.6612204531084, 127.025721318601",37.6612204531084,127.025721318601
678,학교,서울신창초등학교,"37.6365395299158, 127.042084340998",37.6365395299158,127.042084340998
679,학교,서울신상계초등학교,"37.6675183641329, 127.075828032383",37.6675183641329,127.075828032383
680,학교,서울신방학초등학교,"37.6666842526367, 127.028918089521",37.6666842526367,127.028918089521
681,학교,서울신계초등학교,"37.6299890777455, 127.052871958868",37.6299890777455,127.052871958868
682,학교,서울숭미초등학교,"37.6510234416817, 127.027944278021",37.6510234416817,127.027944278021
683,학교,서울수암초등학교,"37.647684897261, 127.081465589212",37.647684897261,127.081465589212
684,학교,서울수락초등학교,"37.684506075345, 127.055187311236",37.684506075345,127.055187311236
685,학교,서울선곡초등학교,"37.618602019203, 127.057730270535",37.618602019203,127.057730270535
686,학교,서울상천초등학교,"37.6461060086385, 127.057447991502",37.6461060086385,127.057447991502
687,학교,서울상월초등학교,"37.658683945506, 127.057369284524",37.658683945506,127.057369284524
688,학교,서울상원초등학교,"37.6676655147961, 127.059630713208",37.6676655147961,127.059630713208
689,학교,서울상수초등학교,"37.6510888982527, 127.064586804676",37.6510888982527,127.064586804676
690,학교,서울상곡초등학교,"37.6628823049142, 127.062234187186",37.6628823049142,127.062234187186
691,학교,서울상계초등학교,"37.6588438529621, 127.066336425835",37.6588438529621,127.066336425835
692,학교,서울상경초등학교,"37.6704594706621, 127.051773754079",37.6704594706621,127.051773754079
693,학교,서울불암초등학교,"37.6511506377134, 127.080650989428",37.6511506377134,127.080650989428
694,학교,서울백운초등학교,"37.6526415114592, 127.013672482387",37.6526415114592,127.013672482387
695,학교,서울방학초등학교,"37.6639337284245, 127.032747955457",37.6639337284245,127.032747955457
696,학교,서울동일초등학교,"37.6648178269709, 127.054322233957",37.6648178269709,127.054322233957
697,학교,서울도봉초등학교,"37.679961751365, 127.038288664028",37.679961751365,127.038288664028
698,학교,서울덕암초등학교,"37.6666337243041, 127.081715132961",37.6666337243041,127.081715132961
699,학교,서울당현초등학교,"37.6482303134222, 127.058252457257",37.6482303134222,127.058252457257
700,학교,서울누원초등학교,"37.6872327127492, 127.04926716395",37.6872327127492,127.04926716395
701,학교,서울녹천초등학교,"37.6285101097035, 127.063134105063",37.6285101097035,127.063134105063
702,학교,서울노일초등학교,"37.6735135287049, 127.05513756871",37.6735135287049,127.05513756871
703,학교,서울노원초등학교,"37.6735901336984, 127.058460101574",37.6735901336984,127.058460101574
704,학교,서울공연초등학교,"37.62719482311, 127.074030837547",37.62719482311,127.074030837547
705,학교,서울공릉초등학교,"37.6186120126537, 127.074614270574",37.6186120126537,127.074614270574
706,학교,서울계상초등학교,"37.6624464105885, 127.068880275281",37.6624464105885,127.068880275281
707,학교,서울가인초등학교,"37.6594678039701, 127.042950889775",37.6594678039701,127.042950889775
708,학교,상명초등학교,"37.648727616308, 127.066984539254",37.648727616308,127.066984539254
709,학교,동북초등학교,"37.6562750160952, 127.026703057445",37.6562750160952,127.026703057445
710,학교,지구촌학교 고등학교,"37.4888597347494, 126.835176855592",37.4888597347494,126.835176855592
711,학교,지구촌학교 중학교,"37.4888597347494, 126.835176855592",37.4888597347494,126.835176855592
712,학교,서울항동초등학교,"37.4770921430884, 126.824189454348",37.4770921430884,126.824189454348
713,학교,서울하늘숲초등학교,"37.4841594284099, 126.841481997252",37.4841594284099,126.841481997252
714,학교,신길중학교,"37.5020345359595, 126.915435514602",37.5020345359595,126.915435514602
715,학교,항동중학교,"37.4828380762731, 126.82037207979",37.4828380762731,126.82037207979
716,학교,서울금나래초등학교,"37.4582299981347, 126.896205569649",37.4582299981347,126.896205569649
717,학교,서울천이초등학교,"37.4863679517074, 126.83999205713",37.4863679517074,126.83999205713
718,학교,천왕중학교,"37.4826544228754, 126.837333603453",37.4826544228754,126.837333603453
719,학교,학력인정 서현초등학교,"37.5123057802523, 126.915519617033",37.5123057802523,126.915519617033
720,학교,지구촌학교,"37.4888597347494, 126.835176855592",37.4888597347494,126.835176855592
721,학교,서울천왕초등학교,"37.481412481777, 126.836947364315",37.481412481777,126.836947364315
722,학교,한울중학교,"37.4624053084957, 126.907170322675",37.4624053084957,126.907170322675
723,학교,윤중중학교,"37.518930212016, 126.924123155746",37.518930212016,126.924123155746
724,학교,우신중학교,"37.4949023087281, 126.826353599765",37.4949023087281,126.826353599765
725,학교,오류중학교,"37.5077291918003, 126.846523985639",37.5077291918003,126.846523985639
726,학교,오남중학교,"37.4870596923458, 126.837248973616",37.4870596923458,126.837248973616
727,학교,영원중학교,"37.5149741902707, 126.913646864883",37.5149741902707,126.913646864883
728,학교,영서중학교,"37.4897523897016, 126.89491012521",37.4897523897016,126.89491012521
729,학교,영림중학교,"37.4972281131318, 126.89071786561",37.4972281131318,126.89071786561
730,학교,영남중학교,"37.4978721812656, 126.895836459703",37.4978721812656,126.895836459703
731,학교,여의도중학교,"37.5239802029958, 126.935753141866",37.5239802029958,126.935753141866
732,학교,양화중학교,"37.5195479164417, 126.895940834494",37.5195479164417,126.895940834494
733,학교,안천중학교,"37.4595242629201, 126.887498771184",37.4595242629201,126.887498771184
734,학교,신도림중학교,"37.5107407265629, 126.884807054238",37.5107407265629,126.884807054238
735,학교,시흥중학교,"37.4462950730433, 126.905082280209",37.4462950730433,126.905082280209
736,학교,세일중학교,"37.4745944107703, 126.895368861106",37.4745944107703,126.895368861106
737,학교,선유중학교,"37.5332864654562, 126.894300682029",37.5332864654562,126.894300682029
738,학교,문일중학교,"37.4489152569278, 126.898720653088",37.4489152569278,126.898720653088
739,학교,문성중학교,"37.4754682009333, 126.908493841535",37.4754682009333,126.908493841535
740,학교,문래중학교,"37.520362407627, 126.884670886121",37.520362407627,126.884670886121
741,학교,동일중학교,"37.4519206711218, 126.915824008297",37.4519206711218,126.915824008297
742,학교,대영중학교,"37.5034378363342, 126.905208015838",37.5034378363342,126.905208015838
743,학교,대림중학교,"37.4921386164499, 126.906943001077",37.4921386164499,126.906943001077
744,학교,당산중학교,"37.5320330761599, 126.907614032983",37.5320330761599,126.907614032983
745,학교,당산서중학교,"37.5324839425003, 126.898825095957",37.5324839425003,126.898825095957
746,학교,난곡중학교,"37.4780455835119, 126.910791624653",37.4780455835119,126.910791624653
747,학교,구일중학교,"37.4953009067244, 126.873770176593",37.4953009067244,126.873770176593
748,학교,구로중학교,"37.4948597203552, 126.891099914602",37.4948597203552,126.891099914602
749,학교,고척중학교,"37.4997408260167, 126.861342460735",37.4997408260167,126.861342460735
750,학교,경인중학교,"37.4984656617815, 126.853672529481",37.4984656617815,126.853672529481
751,학교,개웅중학교,"37.48752689616, 126.851071080046",37.48752689616,126.851071080046
752,학교,개봉중학교,"37.5035293156194, 126.842399758595",37.5035293156194,126.842399758595
753,학교,가산중학교,"37.468777055274, 126.894474890365",37.468777055274,126.894474890365
754,학교,서울탑동초등학교,"37.4523226721912, 126.914525435709",37.4523226721912,126.914525435709
755,학교,서울정심초등학교,"37.4719826762833, 126.908186532287",37.4719826762833,126.908186532287
756,학교,서울윤중초등학교,"37.5196416407122, 126.92259080096",37.5196416407122,126.92259080096
757,학교,서울우신초등학교,"37.5098647213535, 126.911863664868",37.5098647213535,126.911863664868
758,학교,서울온수초등학교,"37.4935106167356, 126.826661571624",37.4935106167356,126.826661571624
759,학교,서울오정초등학교,"37.4901372514516, 126.82641766297",37.4901372514516,126.82641766297
760,학교,서울오류초등학교,"37.4975370576845, 126.842037699221",37.4975370576845,126.842037699221
761,학교,서울오류남초등학교,"37.4897166823284, 126.839098527316",37.4897166823284,126.839098527316
762,학교,서울영중초등학교,"37.5241432995791, 126.903695688306",37.5241432995791,126.903695688306
763,학교,서울영일초등학교,"37.4856100736284, 126.883911257917",37.4856100736284,126.883911257917
764,학교,서울영원초등학교,"37.5107193620837, 126.902182504089",37.5107193620837,126.902182504089
765,학교,서울영신초등학교,"37.5101719627186, 126.918122078214",37.5101719627186,126.918122078214
766,학교,서울영서초등학교,"37.4879630931966, 126.895027399291",37.4879630931966,126.895027399291
767,학교,서울영문초등학교,"37.5198074103506, 126.887589090951",37.5198074103506,126.887589090951
768,학교,서울영림초등학교,"37.4873460122893, 126.902516130281",37.4873460122893,126.902516130281
769,학교,서울영등포초등학교,"37.5129480156762, 126.898260025571",37.5129480156762,126.898260025571
770,학교,서울영동초등학교,"37.5270069102324, 126.907703382657",37.5270069102324,126.907703382657
771,학교,서울영남초등학교,"37.4758806998687, 126.909922783649",37.4758806998687,126.909922783649
772,학교,서울여의도초등학교,"37.5232048215986, 126.93679444014",37.5232048215986,126.93679444014
773,학교,서울안천초등학교,"37.4587578075219, 126.88839136672",37.4587578075219,126.88839136672
774,학교,서울신흥초등학교,"37.4592842732301, 126.909349183257",37.4592842732301,126.909349183257
775,학교,서울신영초등학교,"37.5010060169412, 126.896094817069",37.5010060169412,126.896094817069
776,학교,서울신미림초등학교,"37.5071588011358, 126.879584155104",37.5071588011358,126.879584155104
777,학교,서울신도림초등학교,"37.5119963604915, 126.88315069881",37.5119963604915,126.88315069881
778,학교,서울신대림초등학교,"37.4921487438027, 126.90607771762",37.4921487438027,126.90607771762
779,학교,서울신구로초등학교,"37.4994208675251, 126.888857414498",37.4994208675251,126.888857414498
780,학교,서울시흥초등학교,"37.4553481963092, 126.904649154185",37.4553481963092,126.904649154185
781,학교,서울세곡초등학교,"37.5050604361168, 126.849126611988",37.5050604361168,126.849126611988
782,학교,서울선유초등학교,"37.532879190933, 126.892776819259",37.532879190933,126.892776819259
783,학교,서울백산초등학교,"37.4467672802822, 126.905064619222",37.4467672802822,126.905064619222
784,학교,서울미래초등학교,"37.5051066487493, 126.888080264013",37.5051066487493,126.888080264013
785,학교,서울문성초등학교,"37.4748818804257, 126.899471333222",37.4748818804257,126.899471333222
786,학교,서울문백초등학교,"37.4471198696556, 126.898688718403",37.4471198696556,126.898688718403
787,학교,서울문래초등학교,"37.5191403848287, 126.893605730635",37.5191403848287,126.893605730635
788,학교,서울문교초등학교,"37.4667696443557, 126.90892992546",37.4667696443557,126.90892992546
789,학교,서울매봉초등학교,"37.5049421974545, 126.844383110615",37.5049421974545,126.844383110615
790,학교,서울두산초등학교,"37.467546675265, 126.890946472913",37.467546675265,126.890946472913
791,학교,서울동구로초등학교,"37.4944479994725, 126.893016334052",37.4944479994725,126.893016334052
792,학교,서울독산초등학교,"37.4656561906645, 126.899712928109",37.4656561906645,126.899712928109
793,학교,서울도신초등학교,"37.4992678949668, 126.900714062322",37.4992678949668,126.900714062322
794,학교,서울도림초등학교,"37.5086786949617, 126.907115425568",37.5086786949617,126.907115425568
795,학교,서울덕의초등학교,"37.5060004032334, 126.857353094103",37.5060004032334,126.857353094103
796,학교,서울대영초등학교,"37.5026541997676, 126.906524398043",37.5026541997676,126.906524398043
797,학교,서울대방초등학교,"37.5029001208602, 126.919020182507",37.5029001208602,126.919020182507
798,학교,서울대동초등학교,"37.4937093653318, 126.900450594121",37.4937093653318,126.900450594121
799,학교,서울대길초등학교,"37.4982314495379, 126.913035010017",37.4982314495379,126.913035010017
800,학교,서울당중초등학교,"37.52628923031, 126.889413529916",37.52628923031,126.889413529916
801,학교,서울당서초등학교,"37.5320274377069, 126.89981419859",37.5320274377069,126.89981419859
802,학교,서울당산초등학교,"37.5401191186811, 126.896241067017",37.5401191186811,126.896241067017
803,학교,서울금천초등학교,"37.4548043070511, 126.912886851466",37.4548043070511,126.912886851466
804,학교,서울금산초등학교,"37.4414211782481, 126.907881604603",37.4414211782481,126.907881604603
805,학교,서울금동초등학교,"37.4477657831877, 126.916396430625",37.4477657831877,126.916396430625
806,학교,서울구일초등학교,"37.4931918730561, 126.873472709056",37.4931918730561,126.873472709056
807,학교,서울구로초등학교,"37.4972616788429, 126.886001814771",37.4972616788429,126.886001814771
808,학교,서울구로남초등학교,"37.4847045985983, 126.890267788001",37.4847045985983,126.890267788001
809,학교,서울고척초등학교,"37.5009977911143, 126.8568624099",37.5009977911143,126.8568624099
810,학교,서울고원초등학교,"37.4976454267483, 126.865771276704",37.4976454267483,126.865771276704
811,학교,서울고산초등학교,"37.4993252329505, 126.865350068539",37.4993252329505,126.865350068539
812,학교,서울개웅초등학교,"37.4885713176365, 126.849982268839",37.4885713176365,126.849982268839
813,학교,서울개봉초등학교,"37.4895280611996, 126.857972181036",37.4895280611996,126.857972181036
814,학교,서울개명초등학교,"37.483056382598, 126.850940659082",37.483056382598,126.850940659082
815,학교,서울가산초등학교,"37.4781477195501, 126.896184019972",37.4781477195501,126.896184019972
816,학교,동광초등학교,"37.4519206711218, 126.915824008297",37.4519206711218,126.915824008297
817,학교,서울어울초등학교,"37.6065633137733, 126.935058620612",37.6065633137733,126.935058620612
818,학교,서울가재울초등학교,"37.5737644190198, 126.918388033648",37.5737644190198,126.918388033648
819,학교,아현중학교부설방송통신중학교,"37.5564007056196, 126.9565000215",37.5564007056196,126.9565000215
820,학교,가재울중학교,"37.5750983516219, 126.909974232219",37.5750983516219,126.909974232219
821,학교,서울은빛초등학교,"37.6426828611882, 126.918730453447",37.6426828611882,126.918730453447
822,학교,서울하늘초등학교,"37.5858060895514, 126.880857196502",37.5858060895514,126.880857196502
823,학교,서울수리초등학교,"37.6203073698534, 126.934110930932",37.6203073698534,126.934110930932
824,학교,홍익대학교사범대학부속여자중학교,"37.559665162458, 126.912928685692",37.559665162458,126.912928685692
825,학교,홍은중학교,"37.5918915088396, 126.935752441047",37.5918915088396,126.935752441047
826,학교,한성중학교,"37.559096439531, 126.954456481223",37.559096439531,126.954456481223
827,학교,충암중학교,"37.5846402882465, 126.921809482886",37.5846402882465,126.921809482886
828,학교,창천중학교,"37.5549178201995, 126.939295148137",37.5549178201995,126.939295148137
829,학교,진관중학교,"37.6442556363265, 126.925727657672",37.6442556363265,126.925727657672
830,학교,증산중학교,"37.5838153929282, 126.904939878075",37.5838153929282,126.904939878075
831,학교,중앙여자중학교,"37.5631767195176, 126.954059321222",37.5631767195176,126.954059321222
832,학교,중암중학교,"37.5724113191677, 126.903368570397",37.5724113191677,126.903368570397
833,학교,정원여자중학교,"37.585375236102, 126.933430493203",37.585375236102,126.933430493203
834,학교,인창중학교,"37.564885131451, 126.964023197643",37.564885131451,126.964023197643
835,학교,인왕중학교,"37.5921766077533, 126.951676034823",37.5921766077533,126.951676034823
836,학교,이화여자대학교사범대학부속이화·금란중학교,"37.5626393076934, 126.944488566727",37.5626393076934,126.944488566727
837,학교,은평중학교,"37.6106351824588, 126.908347176378",37.6106351824588,126.908347176378
838,학교,예일여자중학교,"37.6109458980893, 126.914792838283",37.6109458980893,126.914792838283
839,학교,영락중학교,"37.5969602955013, 126.925180316438",37.5969602955013,126.925180316438
840,학교,연희중학교,"37.5795872821657, 126.918791837695",37.5795872821657,126.918791837695
841,학교,연천중학교,"37.6275452130621, 126.925819848355",37.6275452130621,126.925819848355
842,학교,연신중학교,"37.62353926398, 126.924287913377",37.62353926398,126.924287913377
843,학교,연서중학교,"37.587027156188, 126.909283597865",37.587027156188,126.909283597865
844,학교,연북중학교,"37.5775532912341, 126.938295387125",37.5775532912341,126.938295387125
845,학교,아현중학교,"37.5564007056196, 126.9565000215",37.5564007056196,126.9565000215
846,학교,신연중학교,"37.582676783216, 126.940382004992",37.582676783216,126.940382004992
847,학교,신수중학교,"37.5459230000416, 126.934131984442",37.5459230000416,126.934131984442
848,학교,신도중학교,"37.6329931167171, 126.930713128967",37.6329931167171,126.930713128967
849,학교,숭실중학교,"37.5932748232178, 126.902403937432",37.5932748232178,126.902403937432
850,학교,숭문중학교,"37.5508909515504, 126.945886852057",37.5508909515504,126.945886852057
851,학교,성서중학교,"37.5627873046831, 126.907952181324",37.5627873046831,126.907952181324
852,학교,성산중학교,"37.5473163695853, 126.916562846457",37.5473163695853,126.916562846457
853,학교,성사중학교,"37.5680910963856, 126.912682985472",37.5680910963856,126.912682985472
854,학교,선정중학교,"37.6187045126614, 126.909031611714",37.6187045126614,126.909031611714
855,학교,선일여자중학교,"37.6203042094228, 126.911993073275",37.6203042094228,126.911993073275
856,학교,서울여자중학교,"37.5478000312208, 126.94902525222",37.5478000312208,126.94902525222
857,학교,서연중학교,"37.5682162296874, 126.927137653568",37.5682162296874,126.927137653568
858,학교,상암중학교,"37.5790569198061, 126.887550793573",37.5790569198061,126.887550793573
859,학교,상신중학교,"37.5897854748773, 126.906424934661",37.5897854748773,126.906424934661
860,학교,불광중학교,"37.6231798247545, 126.932389206759",37.6231798247545,126.932389206759
861,학교,명지중학교,"37.5849113531243, 126.927090249447",37.5849113531243,126.927090249447
862,학교,동명여자중학교,"37.5686154223912, 126.962252871841",37.5686154223912,126.962252871841
863,학교,동도중학교,"37.5466750773343, 126.948479002412",37.5466750773343,126.948479002412
864,학교,덕산중학교,"37.6022573973254, 126.904677132229",37.6022573973254,126.904677132229
865,학교,대성중학교,"37.6231422778381, 126.909790703133",37.6231422778381,126.909790703133
866,학교,구산중학교,"37.6098720248468, 126.90948871144",37.6098720248468,126.90948871144
867,학교,광성중학교,"37.5486975552073, 126.935969575594",37.5486975552073,126.935969575594
868,학교,경성중학교,"37.563510635781, 126.919166278819",37.563510635781,126.919166278819
869,학교,홍익대학교사범대학부속초등학교,"37.559665162458, 126.912928685692",37.559665162458,126.912928685692
870,학교,충암초등학교,"37.5846402882465, 126.921809482886",37.5846402882465,126.921809482886
871,학교,추계초등학교,"37.5631767195176, 126.954059321222",37.5631767195176,126.954059321222
872,학교,이화여자대학교사범대학부속초등학교,"37.5611502235257, 126.942775077877",37.5611502235257,126.942775077877
873,학교,예일초등학교,"37.6109458980893, 126.914792838283",37.6109458980893,126.914792838283
874,학교,선일초등학교,"37.6203042094228, 126.911993073275",37.6203042094228,126.911993073275
875,학교,서울홍제초등학교,"37.5934809108736, 126.945336524574",37.5934809108736,126.945336524574
876,학교,서울홍은초등학교,"37.5975402724558, 126.949457988833",37.5975402724558,126.949457988833
877,학교,서울홍연초등학교,"37.582118713581, 126.93066044978",37.582118713581,126.93066044978
878,학교,서울한서초등학교,"37.5536478329572, 126.949778833645",37.5536478329572,126.949778833645
879,학교,서울창천초등학교,"37.5549178201995, 126.939295148137",37.5549178201995,126.939295148137
880,학교,서울창서초등학교,"37.5581430512569, 126.933480871339",37.5581430512569,126.933480871339
881,학교,서울진관초등학교,"37.6454198616021, 126.929052478211",37.6454198616021,126.929052478211
882,학교,서울증산초등학교,"37.5825652695002, 126.904276446505",37.5825652695002,126.904276446505
883,학교,서울중동초등학교,"37.5664458381853, 126.911780404952",37.5664458381853,126.911780404952
884,학교,서울인왕초등학교,"37.5902198832433, 126.944804483066",37.5902198832433,126.944804483066
885,학교,서울응암초등학교,"37.5887531914177, 126.921616096958",37.5887531914177,126.921616096958
886,학교,서울은평초등학교,"37.6023040358796, 126.934033612153",37.6023040358796,126.934033612153
887,학교,서울은진초등학교,"37.6330440427703, 126.920996007067",37.6330440427703,126.920996007067
888,학교,서울은명초등학교,"37.5976791222992, 126.918275747068",37.5976791222992,126.918275747068
889,학교,서울용강초등학교,"37.549112429713, 126.944058506049",37.549112429713,126.944058506049
890,학교,서울염리초등학교,"37.5425709323083, 126.946247603396",37.5425709323083,126.946247603396
891,학교,서울연희초등학교,"37.5690459271047, 126.934142303217",37.5690459271047,126.934142303217
892,학교,서울연천초등학교,"37.6213492886599, 126.929917884841",37.6213492886599,126.929917884841
893,학교,서울연은초등학교,"37.5905122161631, 126.925112608529",37.5905122161631,126.925112608529
894,학교,서울연신초등학교,"37.6260599638981, 126.927751281025",37.6260599638981,126.927751281025
895,학교,서울연광초등학교,"37.6236487604699, 126.923909005211",37.6236487604699,126.923909005211
896,학교,서울연가초등학교,"37.5795632014616, 126.917329192961",37.5795632014616,126.917329192961
897,학교,서울역촌초등학교,"37.6015841686977, 126.913928033442",37.6015841686977,126.913928033442
898,학교,서울안산초등학교,"37.5791690097819, 126.952209733658",37.5791690097819,126.952209733658
899,학교,서울아현초등학교,"37.5558159936174, 126.956596106511",37.5558159936174,126.956596106511
900,학교,서울신석초등학교,"37.5445357278463, 126.937779457981",37.5445357278463,126.937779457981
901,학교,서울신사초등학교,"37.5928348327068, 126.911983196588",37.5928348327068,126.911983196588
902,학교,서울신북초등학교,"37.5715459609872, 126.904868991641",37.5715459609872,126.904868991641
903,학교,서울신도초등학교,"37.6329384289784, 126.929198935551",37.6329384289784,126.929198935551
904,학교,서울수색초등학교,"37.5851721490482, 126.896012135221",37.5851721490482,126.896012135221
905,학교,서울소의초등학교,"37.552781864533, 126.960655552156",37.552781864533,126.960655552156
906,학교,서울성원초등학교,"37.5669324413569, 126.905013630897",37.5669324413569,126.905013630897
907,학교,서울성서초등학교,"37.5610150373718, 126.910759005302",37.5610150373718,126.910759005302
908,학교,서울성산초등학교,"37.5534453328883, 126.910669687285",37.5534453328883,126.910669687285
909,학교,서울서신초등학교,"37.5922940508202, 126.907382316218",37.5922940508202,126.907382316218
910,학교,서울서교초등학교,"37.554881730967, 126.924382439365",37.554881730967,126.924382439365
911,학교,서울서강초등학교,"37.5481050750929, 126.927430860042",37.5481050750929,126.927430860042
912,학교,서울상지초등학교,"37.5797510164641, 126.882073551893",37.5797510164641,126.882073551893
913,학교,서울상암초등학교,"37.5763095825917, 126.891959952963",37.5763095825917,126.891959952963
914,학교,서울상신초등학교,"37.5975537179419, 126.904604886275",37.5975537179419,126.904604886275
915,학교,서울불광초등학교,"37.6134294463781, 126.930718712253",37.6134294463781,126.930718712253
916,학교,서울북한산초등학교,"37.6536320835839, 126.950462446061",37.6536320835839,126.950462446061
917,학교,서울북성초등학교,"37.55963212308, 126.951834913817",37.55963212308,126.951834913817
918,학교,서울북가좌초등학교,"37.5772202096676, 126.907778193085",37.5772202096676,126.907778193085
919,학교,서울미동초등학교,"37.5633505669619, 126.965886060285",37.5633505669619,126.965886060285
920,학교,서울망원초등학교,"37.5610439363669, 126.901117241",37.5610439363669,126.901117241
921,학교,서울마포초등학교,"37.5386376331175, 126.949973786127",37.5386376331175,126.949973786127
922,학교,서울동교초등학교,"37.5583376929114, 126.902078300574",37.5583376929114,126.902078300574
923,학교,서울대조초등학교,"37.613579143925, 126.919302166743",37.613579143925,126.919302166743
924,학교,서울대은초등학교,"37.6123671176016, 126.925869811138",37.6123671176016,126.925869811138
925,학교,서울대신초등학교,"37.5579475491997, 126.948057240166",37.5579475491997,126.948057240166
926,학교,서울녹번초등학교,"37.6045833930687, 126.925746281804",37.6045833930687,126.925746281804
927,학교,서울금화초등학교,"37.5688275546965, 126.962941434617",37.5688275546965,126.962941434617
928,학교,서울구현초등학교,"37.6097895968758, 126.905707319658",37.6097895968758,126.905707319658
929,학교,서울구산초등학교,"37.6127509583582, 126.909376492632",37.6127509583582,126.909376492632
930,학교,서울공덕초등학교,"37.5458033455121, 126.954823056539",37.5458033455121,126.954823056539
931,학교,서울고은초등학교,"37.585001844196, 126.943974937789",37.585001844196,126.943974937789
932,학교,서울갈현초등학교,"37.6197796356231, 126.916683441356",37.6197796356231,126.916683441356
933,학교,명지초등학교,"37.5836299393884, 126.928231470941",37.5836299393884,126.928231470941
934,학교,경기초등학교,"37.5651102907996, 126.962860648912",37.5651102907996,126.962860648912
935,학교,서울양원숲초등학교,"37.6090497375586, 127.105433722535",37.6090497375586,127.105433722535
936,학교,서울새솔초등학교,"37.6179523956105, 127.111328411856",37.6179523956105,127.111328411856
937,학교,서울삼육초등학교,"37.5896941349867, 127.0482485373",37.5896941349867,127.0482485373
938,학교,휘경중학교,"37.5870929876308, 127.061746113577",37.5870929876308,127.061746113577
939,학교,휘경여자중학교,"37.5819005156881, 127.067434080061",37.5819005156881,127.067434080061
940,학교,혜원여자중학교,"37.5932798745236, 127.097042711299",37.5932798745236,127.097042711299
941,학교,태릉중학교,"37.6125319131001, 127.083435549639",37.6125319131001,127.083435549639
942,학교,청량중학교,"37.5882192071931, 127.050622549806",37.5882192071931,127.050622549806
943,학교,중화중학교,"37.584503792183, 127.094560803284",37.584503792183,127.094560803284
944,학교,중랑중학교,"37.6053543032855, 127.080801743129",37.6053543032855,127.080801743129
945,학교,정화여자중학교,"37.586048641672, 127.041070321981",37.586048641672,127.041070321981
946,학교,전일중학교,"37.5825001768201, 127.058379516351",37.5825001768201,127.058379516351
947,학교,전동중학교,"37.5861935915453, 127.070929087368",37.5861935915453,127.070929087368
948,학교,전농중학교,"37.5820442761539, 127.059279434844",37.5820442761539,127.059279434844
949,학교,장평중학교,"37.5668596067189, 127.070477570556",37.5668596067189,127.070477570556
950,학교,장안중학교,"37.6005073021727, 127.081376524078",37.6005073021727,127.081376524078
951,학교,원묵중학교,"37.6178416319695, 127.084553885966",37.6178416319695,127.084553885966
952,학교,용마중학교,"37.5745091144718, 127.086267425784",37.5745091144718,127.086267425784
953,학교,영란여자중학교,"37.6031323992803, 127.105332396209",37.6031323992803,127.105332396209
954,학교,신현중학교,"37.6044645795756, 127.091532797561",37.6044645795756,127.091532797561
955,학교,숭인중학교,"37.5738482581785, 127.043896480723",37.5738482581785,127.043896480723
956,학교,송곡여자중학교,"37.6066890425626, 127.105145451077",37.6066890425626,127.105145451077
957,학교,성일중학교,"37.5818502321361, 127.033850440748",37.5818502321361,127.033850440748
958,학교,상봉중학교,"37.601527985138, 127.090124645592",37.601527985138,127.090124645592
959,학교,봉화중학교,"37.5958275306695, 127.104315557629",37.5958275306695,127.104315557629
960,학교,면목중학교,"37.5830114568556, 127.096589314058",37.5830114568556,127.096589314058
961,학교,동원중학교,"37.6038226403943, 127.109498124672",37.6038226403943,127.109498124672
962,학교,동대문중학교,"37.5745220668493, 127.051994343436",37.5745220668493,127.051994343436
963,학교,동국대학교사범대학부속중학교,"37.5780471818476, 127.075133018965",37.5780471818476,127.075133018965
964,학교,대광중학교,"37.5779549391135, 127.025328234604",37.5779549391135,127.025328234604
965,학교,경희중학교,"37.5939491407769, 127.054890960564",37.5939491407769,127.054890960564
966,학교,경희여자중학교,"37.5939491407769, 127.054890960564",37.5939491407769,127.054890960564
967,학교,은석초등학교,"37.5784502701654, 127.076003088926",37.5784502701654,127.076003088926
968,학교,서울휘봉초등학교,"37.5856764110055, 127.070041638322",37.5856764110055,127.070041638322
969,학교,서울휘경초등학교,"37.5856754144498, 127.057916891964",37.5856754144498,127.057916891964
970,학교,서울홍파초등학교,"37.586120384461, 127.039414975087",37.586120384461,127.039414975087
971,학교,서울홍릉초등학교,"37.5906875196186, 127.047705124334",37.5906875196186,127.047705124334
972,학교,서울청량초등학교,"37.5923093987643, 127.055908478798",37.5923093987643,127.055908478798
973,학교,서울중흥초등학교,"37.6014097153165, 127.083849146888",37.6014097153165,127.083849146888
974,학교,서울중화초등학교,"37.6029182729949, 127.094539488049",37.6029182729949,127.094539488049
975,학교,서울중목초등학교,"37.5900368304084, 127.079200700601",37.5900368304084,127.079200700601
976,학교,서울중랑초등학교,"37.5896624582228, 127.075503730195",37.5896624582228,127.075503730195
977,학교,서울중곡초등학교,"37.5748917275114, 127.083439043719",37.5748917275114,127.083439043719
978,학교,서울종암초등학교,"37.5823074106355, 127.031856383108",37.5823074106355,127.031856383108
979,학교,서울전동초등학교,"37.5790832853249, 127.060805297019",37.5790832853249,127.060805297019
980,학교,서울전농초등학교,"37.5746852353644, 127.054397292161",37.5746852353644,127.054397292161
981,학교,서울전곡초등학교,"37.5807042921469, 127.056012445216",37.5807042921469,127.056012445216
982,학교,서울장평초등학교,"37.5728706947252, 127.058958260045",37.5728706947252,127.058958260045
983,학교,서울이문초등학교,"37.6018964867149, 127.064885003959",37.6018964867149,127.064885003959
984,학교,서울원묵초등학교,"37.6177488108138, 127.08681415088",37.6177488108138,127.08681415088
985,학교,서울용두초등학교,"37.5764049847235, 127.0283819823",37.5764049847235,127.0283819823
986,학교,서울안평초등학교,"37.565968213548, 127.072033422513",37.565968213548,127.072033422513
987,학교,서울신현초등학교,"37.6058145949305, 127.093521755522",37.6058145949305,127.093521755522
988,학교,서울신묵초등학교,"37.6065228487307, 127.075835832737",37.6065228487307,127.075835832737
989,학교,서울신답초등학교,"37.5727046089059, 127.042961687519",37.5727046089059,127.042961687519
990,학교,서울신내초등학교,"37.6049342235675, 127.100128462105",37.6049342235675,127.100128462105
991,학교,서울상봉초등학교,"37.5979789522459, 127.083171419175",37.5979789522459,127.083171419175
992,학교,서울봉화초등학교,"37.6135762310839, 127.092408488473",37.6135762310839,127.092408488473
993,학교,서울배봉초등학교,"37.58008416213, 127.066871936075",37.58008416213,127.066871936075
994,학교,서울묵현초등학교,"37.609044756978, 127.073928695922",37.609044756978,127.073928695922
995,학교,서울묵동초등학교,"37.603359494137, 127.080827217486",37.603359494137,127.080827217486
996,학교,서울면중초등학교,"37.5824417903374, 127.096550877754",37.5824417903374,127.096550877754
997,학교,서울면일초등학교,"37.5920415995378, 127.099794712349",37.5920415995378,127.099794712349
998,학교,서울면북초등학교,"37.5944181555082, 127.103547800182",37.5944181555082,127.103547800182
999,학교,서울면목초등학교,"37.5906965996805, 127.087287822911",37.5906965996805,127.087287822911
1000,학교,서울면동초등학교,"37.5852407128388, 127.085961098757",37.5852407128388,127.085961098757
1001,학교,서울면남초등학교,"37.5772597202711, 127.087666433029",37.5772597202711,127.087666433029
1002,학교,서울망우초등학교,"37.5987369776708, 127.103841751495",37.5987369776708,127.103841751495
1003,학교,서울동원초등학교,"37.604668339535, 127.104292115551",37.604668339535,127.104292115551
1004,학교,서울동답초등학교,"37.5715014215127, 127.06403409435",37.5715014215127,127.06403409435
1005,학교,서울답십리초등학교,"37.5688043221289, 127.055427038114",37.5688043221289,127.055427038114
1006,학교,서울군자초등학교,"37.5641223174494, 127.060523298508",37.5641223174494,127.060523298508
1007,학교,금성초등학교,"37.6153151256555, 127.089858462734",37.6153151256555,127.089858462734
1008,학교,경희초등학교,"37.5939491407769, 127.054890960564",37.5939491407769,127.054890960564
1009,학교,서울온라인학교,"37.5552642216916, 127.041141809583",37.5552642216916,127.041141809583
1010,학교,서울반도체고등학교,"37.5851530128648, 127.069450940954",37.5851530128648,127.069450940954
1011,학교,미림마이스터고등학교,"37.4661018035835, 126.931927855676",37.4661018035835,126.931927855676
1012,학교,염광메디텍고등학교,"37.6302844506448, 127.049264552091",37.6302844506448,127.049264552091
1013,학교,서울웹툰애니메이션고등학교,"37.4694909673091, 126.988245947982",37.4694909673091,126.988245947982
1014,학교,솔샘고등학교,"37.6237648476803, 127.012068855446",37.6237648476803,127.012068855446
1015,학교,서울동구고등학교,"37.5941065881018, 127.008215538987",37.5941065881018,127.008215538987
1016,학교,서울정화고등학교,"37.586048641672, 127.041070321981",37.586048641672,127.041070321981
1017,학교,선일빅데이터고등학교,"37.6203042094228, 126.911993073275",37.6203042094228,126.911993073275
1018,학교,대경생활과학고등학교,"37.5563732600255, 127.016979156363",37.5563732600255,127.016979156363
1019,학교,서울매그넷고등학교,"37.4519206711218, 126.915824008297",37.4519206711218,126.915824008297
1020,학교,광운인공지능고등학교,"37.6192431974844, 127.056540751938",37.6192431974844,127.056540751938
1021,학교,서울인공지능고등학교,"37.4916482412209, 127.142085431868",37.4916482412209,127.142085431868
1022,학교,용산철도고등학교,"37.5243416742733, 126.967358069696",37.5243416742733,126.967358069696
1023,학교,서울동산고등학교,"37.6307779754887, 127.073998366297",37.6307779754887,127.073998366297
1024,학교,인덕과학기술고등학교,"37.6302514486494, 127.054448642206",37.6302514486494,127.054448642206
1025,학교,서울신정고등학교,"37.5384117486135, 126.85717155125",37.5384117486135,126.85717155125
1026,학교,서일문화예술고등학교,"37.579364496797, 127.012786339408",37.579364496797,127.012786339408
1027,학교,동명생활경영고등학교,"37.6144187859471, 126.92282044301",37.6144187859471,126.92282044301
1028,학교,단국대학교부속소프트웨어고등학교,"37.4956174948977, 127.057768228297",37.4956174948977,127.057768228297
1029,학교,광신방송예술고등학교,"37.4644762024804, 126.925940565455",37.4644762024804,126.925940565455
1030,학교,고명외식고등학교,"37.597674141541, 127.019187491701",37.597674141541,127.019187491701
1031,학교,서울의료보건고등학교,"37.5573014220873, 126.966720436586",37.5573014220873,126.966720436586
1032,학교,서울서진학교,"37.565476815297, 126.850622310822",37.565476815297,126.850622310822
1033,학교,서울도솔학교,"37.6948404994339, 127.042476701133",37.6948404994339,127.042476701133
1034,학교,서울나래학교,"37.4640249780311, 127.051498480798",37.4640249780311,127.051498480798
1035,학교,영락의료과학고등학교,"37.476541242971, 126.945416499639",37.476541242971,126.945416499639
1036,학교,덜위치칼리지서울영국학교,"37.5042903762188, 126.995340780275",37.5042903762188,126.995340780275
1037,학교,서울새롬학교,"37.4931684664167, 126.92737164546",37.4931684664167,126.92737164546
1038,학교,서울효정학교,"37.6271295359435, 127.016222202675",37.6271295359435,127.016222202675
1039,학교,풍문고등학교,"37.4713361652893, 127.09996343408",37.4713361652893,127.09996343408
1040,학교,서울다솜관광고등학교,"37.5721095475785, 127.01741265638",37.5721095475785,127.01741265638
1041,학교,금호고등학교,"37.5536214995345, 127.023433782844",37.5536214995345,127.023433782844
1042,학교,도선고등학교,"37.5668439494, 127.026995731182",37.5668439494,127.026995731182
1043,학교,금천문화예술정보학교,"37.4792685652716, 126.907219449459",37.4792685652716,126.907219449459
1044,학교,신진과학기술고등학교,"37.59871384669, 126.918836393178",37.59871384669,126.918836393178
1045,학교,선정국제관광고등학교,"37.6187045126614, 126.909031611714",37.6187045126614,126.909031611714
1046,학교,계성고등학교,"37.6075324963563, 127.020335456853",37.6075324963563,127.020335456853
1047,학교,서울항공비즈니스고등학교,"37.5692177821112, 126.817040800626",37.5692177821112,126.817040800626
1048,학교,오디세이학교,"37.5721095475785, 127.01741265638",37.5721095475785,127.01741265638
1049,학교,서울다원학교,"37.593940505056, 126.991360540059",37.593940505056,126.991360540059
1050,학교,누리학교,"37.4999735128686, 126.926521632974",37.4999735128686,126.926521632974
1051,학교,서울실용음악고등학교,"37.5633445927889, 127.020631303957",37.5633445927889,127.020631303957
1052,학교,서울컨벤션고등학교,"37.5592845614915, 127.158215928554",37.5592845614915,127.158215928554
1053,학교,서초문화예술정보학교,"37.4880664721147, 127.029976532348",37.4880664721147,127.029976532348
1054,학교,은평문화예술정보학교,"37.5895224059645, 126.919265533812",37.5895224059645,126.919265533812
1055,학교,서울드와이트외국인학교,"37.584144810594, 126.885285033192",37.584144810594,126.885285033192
1056,학교,대일관광고등학교,"37.5114137684075, 126.834906714744",37.5114137684075,126.834906714744
1057,학교,예림디자인고등학교,"37.5003550678039, 126.827683012604",37.5003550678039,126.827683012604
1058,학교,서울도시과학기술고등학교,"37.6078074870515, 127.033045536038",37.6078074870515,127.033045536038
1059,학교,성덕고등학교,"37.5498545397762, 127.141541303447",37.5498545397762,127.141541303447
1060,학교,가재울고등학교,"37.5743637013203, 126.909529666957",37.5743637013203,126.909529666957
1061,학교,학력인정 청량정보고등학교(2년제),"37.5777320687093, 127.047655876816",37.5777320687093,127.047655876816
1062,학교,학력인정 한림연예예술고등학교,"37.4851088181199, 127.133353538997",37.4851088181199,127.133353538997
1063,학교,학력인정 한림실업고등학교(2년제),"37.4851088181199, 127.133353538997",37.4851088181199,127.133353538997
1064,학교,학력인정 한림중학교(2년제),"37.4851088181199, 127.133353538997",37.4851088181199,127.133353538997
1065,학교,학력인정 한림초등학교(4년제),"37.4796096471942, 127.135611951707",37.4796096471942,127.135611951707
1066,학교,학력인정 청암중학교(2년제),"37.6517772138584, 127.073859531237",37.6517772138584,127.073859531237
1067,학교,학력인정 청암고등학교(2년제),"37.6517772138584, 127.073859531237",37.6517772138584,127.073859531237
1068,학교,학력인정 진형중학교(2년제),"37.5740805443826, 127.020352393515",37.5740805443826,127.020352393515
1069,학교,학력인정 진형고등학교(2년제),"37.5740805443826, 127.020352393515",37.5740805443826,127.020352393515
1070,학교,학력인정 일성여자중학교(2년제),"37.5501838418884, 126.948491864665",37.5501838418884,126.948491864665
1071,학교,학력인정 일성여자고등학교(2년제),"37.5501838418884, 126.948491864665",37.5501838418884,126.948491864665
1072,학교,학력인정 신동신중학교(2년제),"37.4907235731408, 126.977927975527",37.4907235731408,126.977927975527
1073,학교,학력인정 신동신정보산업고등학교(2년제),"37.4907235731408, 126.977927975527",37.4907235731408,126.977927975527
1074,학교,학력인정 청량정보고등학교,"37.5777320687093, 127.047655876816",37.5777320687093,127.047655876816
1075,학교,학력인정 정암미용고등학교(2년제),"37.5821227010138, 127.047209103701",37.5821227010138,127.047209103701
1076,학교,학력인정 서울자동차고등학교,"37.5414883890939, 126.958561947439",37.5414883890939,126.958561947439
1077,학교,학력인정 신동신중.정보산업고등학교,"37.4907235731408, 126.977927975527",37.4907235731408,126.977927975527
1078,학교,휘봉고등학교,"37.5863723553049, 127.068940658438",37.5863723553049,127.068940658438
1079,학교,잠일고등학교,"37.5145543759031, 127.082367731592",37.5145543759031,127.082367731592
1080,학교,구암고등학교,"37.4925540129161, 126.950219161074",37.4925540129161,126.950219161074
1081,학교,서울대학교사범대학부설고등학교,"37.5947007712696, 127.038143027214",37.5947007712696,127.038143027214
1082,학교,꿈타래학교,"37.4705041702937, 126.941940568518",37.4705041702937,126.941940568518
1083,학교,화곡보건경영고등학교,"37.5484125649861, 126.832679697779",37.5484125649861,126.832679697779
1084,학교,영신간호비즈니스고등학교,"37.6525485061054, 127.08350874514",37.6525485061054,127.08350874514
1085,학교,홍익디자인고등학교,"37.563510635781, 126.919166278819",37.563510635781,126.919166278819
1086,학교,송곡관광고등학교,"37.6066890425626, 127.105145451077",37.6066890425626,127.105145451077
1087,학교,세그루패션디자인고등학교,"37.6562750160952, 127.026703057445",37.6562750160952,127.026703057445
1088,학교,삼각산고등학교,"37.6162857334914, 127.020107911458",37.6162857334914,127.020107911458
1089,학교,선사고등학교,"37.5563158751807, 127.13577562154",37.5563158751807,127.13577562154
1090,학교,신도고등학교,"37.6291325083008, 126.918748608965",37.6291325083008,126.918748608965
1091,학교,여명학교,"37.5569031111925, 126.985536502926",37.5569031111925,126.985536502926
1092,학교,동양고등학교,"37.5690302418497, 126.846888761424",37.5690302418497,126.846888761424
1093,학교,서울금융고등학교,"37.5376595496119, 126.825914607519",37.5376595496119,126.825914607519
1094,학교,은평메디텍고등학교,"37.6353465248875, 126.929704776155",37.6353465248875,126.929704776155
1095,학교,서울아이티고등학교,"37.6424184430399, 127.06244927375",37.6424184430399,127.06244927375
1096,학교,문현고등학교,"37.4813135489878, 127.128762268141",37.4813135489878,127.128762268141
1097,학교,강일고등학교,"37.5638280994729, 127.177903473129",37.5638280994729,127.177903473129
1098,학교,하나고등학교,"37.6416375903135, 126.936930247565",37.6416375903135,126.936930247565
1099,학교,압구정고등학교,"37.5311339475008, 127.032711640733",37.5311339475008,127.032711640733
1100,학교,상일미디어고등학교,"37.5485874781342, 127.170823536325",37.5485874781342,127.170823536325
1101,학교,한세사이버보안고등학교,"37.5517396875369, 126.952136379582",37.5517396875369,126.952136379582
1102,학교,리라아트고등학교,"37.5576622746229, 126.987778499953",37.5576622746229,126.987778499953
1103,학교,서울공연예술고등학교,"37.4999306587647, 126.832608691425",37.4999306587647,126.832608691425
1104,학교,성동글로벌경영고등학교,"37.5658547150955, 127.0135246262",37.5658547150955,127.0135246262
1105,학교,서울문화고등학교,"37.6641314270343, 127.047285814495",37.6641314270343,127.047285814495
1106,학교,성수고등학교,"37.5473418143935, 127.038253431317",37.5473418143935,127.038253431317
1107,학교,수명고등학교,"37.5497618629354, 126.824766247612",37.5497618629354,126.824766247612
1108,학교,신도림고등학교,"37.5140629233737, 126.88208378322",37.5140629233737,126.88208378322
1109,학교,진관고등학교,"37.643338571257, 126.924382489033",37.643338571257,126.924382489033
1110,학교,은평고등학교,"37.6091520473272, 126.905808015137",37.6091520473272,126.905808015137
1111,학교,연세대학교재활학교,"37.5660508394158, 126.943916239886",37.5660508394158,126.943916239886
1112,학교,수도사랑의학교,"37.5747822076287, 126.965233100854",37.5747822076287,126.965233100854
1113,학교,코리아외국인학교,"37.4846897718622, 127.041041909426",37.4846897718622,127.041041909426
1114,학교,아시아퍼시픽국제외국인학교,"37.6312069854896, 127.050296196373",37.6312069854896,127.050296196373
1115,학교,하비에르국제학교,"37.6107364994626, 126.956372125276",37.6107364994626,126.956372125276
1116,학교,재한몽골학교,"37.5470934423718, 127.101104344074",37.5470934423718,127.101104344074
1117,학교,한국한성화교소학교,"37.5622227263211, 126.983755549224",37.5622227263211,126.983755549224
1118,학교,한국켄트외국인학교,"37.5470884246412, 127.086432715531",37.5470884246412,127.086432715531
1119,학교,한국외국인학교,"37.4851462741612, 127.062682432781",37.4851462741612,127.062682432781
1120,학교,한국영등포화교소학교,"37.5131983632888, 126.899792658619",37.5131983632888,126.899792658619
1121,학교,지구촌기독외국인학교,"37.5367426570382, 127.011776593011",37.5367426570382,127.011776593011
1122,학교,서울프랑스학교,"37.4958298207347, 126.997840786843",37.4958298207347,126.997840786843
1123,학교,서울일본인학교,"37.5838115111814, 126.884430988567",37.5838115111814,126.884430988567
1124,학교,서울독일학교,"37.5373364057209, 127.011882591024",37.5373364057209,127.011882591024
1125,학교,서울용산국제학교,"37.541026413419, 127.0011366074",37.541026413419,127.0011366074
1126,학교,한국한성화교중고등학교,"37.5715036063411, 126.938378258532",37.5715036063411,126.938378258532
1127,학교,성암국제무역고등학교,"37.6204135324231, 127.023905892641",37.6204135324231,127.023905892641
1128,학교,서울방송고등학교,"37.5477744781642, 127.011037345163",37.5477744781642,127.011037345163
1129,학교,경복비즈니스고등학교,"37.5580972589988, 126.852670273321",37.5580972589988,126.852670273321
1130,학교,대동세무고등학교,"37.5815827310558, 126.987951316186",37.5815827310558,126.987951316186
1131,학교,한강미디어고등학교,"37.5393010496265, 126.897109034358",37.5393010496265,126.897109034358
1132,학교,구현고등학교,"37.5022832205782, 126.874418207198",37.5022832205782,126.874418207198
1133,학교,해성여자고등학교,"37.5818725994505, 127.056976879173",37.5818725994505,127.056976879173
1134,학교,서울국제고등학교,"37.5917911485864, 126.995490680124",37.5917911485864,126.995490680124
1135,학교,세종과학고등학교,"37.4975693967975, 126.827351739435",37.4975693967975,126.827351739435
1136,학교,보인고등학교,"37.4975692004431, 127.139517839227",37.4975692004431,127.139517839227
1137,학교,해성국제컨벤션고등학교,"37.5818725994505, 127.056976879173",37.5818725994505,127.056976879173
1138,학교,예일디자인고등학교,"37.6109458980893, 126.914792838283",37.6109458980893,126.914792838283
1139,학교,덕수고등학교,"37.4855916213524, 127.1470595726",37.4855916213524,127.1470595726
1140,학교,상암고등학교,"37.5813414106022, 126.883394497343",37.5813414106022,126.883394497343
1141,학교,원묵고등학교,"37.6152323139525, 127.085507784516",37.6152323139525,127.085507784516
1142,학교,서울외국인학교,"37.5701438180634, 126.9363287278",37.5701438180634,126.9363287278
1143,학교,고려대학교사범대학부속고등학교,"37.6080476933587, 127.002616144531",37.6080476933587,127.002616144531
1144,학교,서울영상고등학교,"37.5233044400227, 126.860293524636",37.5233044400227,126.860293524636
1145,학교,한양대학교사범대학부속고등학교,"37.5619188387132, 127.042324044658",37.5619188387132,127.042324044658
1146,학교,효문고등학교,"37.6526987118348, 127.0184004627",37.6526987118348,127.0184004627
1147,학교,신서고등학교,"37.5239143189255, 126.860209579436",37.5239143189255,126.860209579436
1148,학교,세현고등학교,"37.5604306618095, 126.863621128106",37.5604306618095,126.863621128106
1149,학교,이화여자대학교병설미디어고등학교,"37.6031323992803, 127.105332396209",37.6031323992803,127.105332396209
1150,학교,동국대학교사범대학부속여자고등학교,"37.5419293578309, 127.086973061678",37.5419293578309,127.086973061678
1151,학교,목동고등학교,"37.5092159752312, 126.86019842592",37.5092159752312,126.86019842592
1152,학교,서울디자인고등학교,"37.5466750773343, 126.948479002412",37.5466750773343,126.948479002412
1153,학교,대진디자인고등학교,"37.4904281491372, 127.095979339516",37.4904281491372,127.095979339516
1154,학교,서울관광고등학교,"37.4878154195732, 126.943760849751",37.4878154195732,126.943760849751
1155,학교,서울로봇고등학교,"37.480741415643, 127.084154946756",37.480741415643,127.084154946756
1156,학교,성동공업고등학교,"37.5693631529572, 127.017281730243",37.5693631529572,127.017281730243
1157,학교,불암고등학교,"37.6491585296421, 127.080305829512",37.6491585296421,127.080305829512
1158,학교,월계고등학교,"37.6316734128872, 127.048388273455",37.6316734128872,127.048388273455
1159,학교,선유고등학교,"37.5339016190568, 126.894850696134",37.5339016190568,126.894850696134
1160,학교,한국제과학교,"37.5159630199729, 126.922035366789",37.5159630199729,126.922035366789
1161,학교,서서울생활과학고등학교,"37.5038291911751, 126.828259957002",37.5038291911751,126.828259957002
