열선의_id,찾은_도로의_id,중점_위도,중점_경도,경사각,최근접_시설의_평균거리,시점_위도,시점_경도,종점_위도,종점_경도,길이,열선여부,행정동,주소,도로명_여부,행정구역
1,,37.6208748650818,127.062049179862,6.6721007655027025,130.7791693568062,37.6210199669672,127.061539234623,37.6207297631964,127.062559125101,352,1,월계동,노원구 월계동 428-3,0,노원구
2,,37.62024653356285,127.06192836690248,6.875068164330298,136.75866155957846,37.6199859956694,127.061188827746,37.6205070714563,127.062667906059,380,1,월계동,"노원구 석계로13길 17 (월계동, 해인베스트빌)",1,노원구
3,,37.63978359767905,127.052876013553,7.474651856148544,490.696713777061,37.6411651720044,127.053067055396,37.6384020233537,127.05268497171,480,1,월계동,노원구 마들로5길 25,1,노원구
4,,37.66629493085085,127.080897403558,3.7494000761966255,161.86657780794965,37.6659561373976,127.080079674155,37.6666337243041,127.081715132961,230,1,상계동,노원구 덕릉로112길 68 (상계동),1,노원구
5,,37.68316913221,127.0621624153985,3.8572056939026305,944.7347897640452,37.6822636829643,127.058081690947,37.6840745814557,127.06624313985,635,1,상계동,노원구 동일로250길 85 (상계동),1,노원구
6,,37.6340759766956,127.058539252226,4.209967856029869,193.26667253258432,37.6339985215397,127.058479599617,37.6341534318515,127.058598904835,30,1,월계동,노원구 초안산로2길 128,1,노원구
7,,37.66693915627995,127.069254771329,3.676671945085464,133.87608434436376,37.6665914375308,127.069690193147,37.6672868750291,127.068819349511,120,1,상계동,노원구 한글비석로46나길 6,1,노원구
8,,37.66156057713865,127.080328705854,2.6636880782902894,163.24371853909423,37.6618305165477,127.07985763967,37.6612906377296,127.080799772038,150,1,중계동,노원구 덕릉로82길 64,1,노원구
